# LAS format log file from PETREL
# Project units are specified as depth units
#==================================================================
~Version information
VERS.   2.0:
WRAP.   NO:
#==================================================================
~Well
STRT .FT      295.00000000 :
STOP .FT      3561.0000000 :
STEP .FT     0.50000000 :
NULL .        -999.250000 :
COMP.           : COMPANY
WELL.  GAUNT-WRIGHT UNIT NO. 1-32   : WELL
FLD.            : FIELD
LOC.            : LOCATION
SRVC.           : SERVICE COMPANY
DATE.  2020-07-30 04:07:39   : Log Export Date {yyyy-MM-dd HH:mm:ss}
PROV.           : PROVINCE
UWI.      : UNIQUE WELL ID
API.            : API NUMBER
#==================================================================
~Curve
DEPT .FT                   : DEPTH
DEPT .FT                   : DEPT
AVTX ._                   : AVTX
BVTX ._                   : BVTX
CILD .mS/m                : CILD
CNDL ._                   : CNDL
CNLS ._                   : CNLS
CNPOR ._                  : CNPOR
CNSS ._                   : CNSS
DCAL .in                  : DCAL
DPOR .m3/m3               : DPOR
GR .gAPI                  : GR
LSPD ._                   : LSPD
LTEN ._                   : LTEN
RHOB .g/cm3               : RHOB
RHOC .g/cm3               : RHOC
RILD ._                   : RILD
RILM ._                   : RILM
RLL3 ._                   : RLL3
RxoRt ._                  : RxoRt
SP .mV                    : SP
MCAL .in                  : MCAL
MI ._                     : MI
MN ._                     : MN
SSTVD .FT_                  : SSTVD
~Parameter
#==================================================================
~Ascii
# ...
 1807.5000000 1807.5000000 0.0000000000 0.0000000000 296.67248535 10.744799614 19.806800842 0.1980680078 23.326000214 1.9185999632 74.238403320 71.106796265 -69.44000244 1239.1347656 1.4405000210 0.0088000000 3.3706998825 3.2130000591 5.5170001984 -20.73240089 -79.64980316 3.9835999012 1.1727000475 2.0090999603 98.500000000
 1808.0000000 1808.0000000 0.0000000000 0.0000000000 306.57669067 11.845999718 21.146699905 0.2114669979 24.519500732 1.9183000326 74.531402588 75.986602783 -69.44000244 1238.2707520 1.4355000257 0.0066999998 3.2618000507 3.1359999180 6.1845998764 -24.57360077 -81.22650146 3.9953999519 1.1743999720 2.0357000828 98.000000000
 1808.5000000 1808.5000000 0.0000000000 0.0000000000 317.17269897 13.549900055 22.739900589 0.2273990065 25.909500122 1.9180999994 74.726997375 78.419998169 -69.44000244 1235.8765869 1.4321999550 0.0052000000 3.1528999805 3.0434999466 6.3246998787 -26.79249954 -82.66819763 3.9876000881 1.1737999916 2.0395998955 97.500000000
 1809.0000000 1809.0000000 0.0000000000 0.0000000000 329.89749146 14.635700226 23.842300415 0.2384230047 26.863599777 1.9179999828 74.948898315 78.838302612 -69.44000244 1233.7414551 1.4284000397 0.0035999999 3.0311999321 2.9440000057 6.0236001015 -27.45549965 -83.97560120 3.9860000610 1.1721999645 2.0332999229 97.000000000
 1809.5000000 1809.5000000 0.0000000000 0.0000000000 343.78680420 15.468500137 24.615200043 0.2461519986 27.533300400 1.9185999632 75.234802246 81.688201904 -69.44000244 1235.8226318 1.4234999418 0.0016000000 2.9087998867 2.8494999409 5.4657001495 -26.98959923 -85.15399933 3.9902999401 1.1684000492 2.0199000835 96.500000000
 1810.0000000 1810.0000000 0.0000000000 0.0000000000 355.88461304 16.532100677 25.564199448 0.2556419969 28.361600876 1.9187999964 75.513198853 84.654602051 -69.44000244 1236.1983643 1.4186999798 0.0006000000 2.8099000454 2.7706000805 4.7992000580 -26.22369957 -86.20670319 3.9797999859 1.1655000448 2.0130000114 96.000000000
 1810.5000000 1810.5000000 0.0000000000 0.0000000000 364.80499268 17.978900909 26.979299545 0.2697930038 29.621900558 1.9184999466 75.718101501 81.885200500 -69.80999756 1237.2730713 1.4151999950 0.0010000000 2.7411999702 2.7128999233 4.5297999382 -26.39299965 -87.13459778 3.9874000549 1.1707999706 2.0344998837 95.500000000
 1811.0000000 1811.0000000 0.0000000000 0.0000000000 372.32510376 19.666000366 28.468299866 0.2846829891 31.000600815 1.9185999632 75.839698792 75.736000061 -69.80999756 1240.6223145 1.4131000042 0.0020999999 2.6858000755 2.6745998859 4.8256001472 -28.28160095 -87.94370270 3.9816000462 1.1826000214 2.0831999779 95.000000000
 1811.5000000 1811.5000000 0.0000000000 0.0000000000 382.68051147 20.495800018 29.173200607 0.2917320132 31.678899765 1.9187999964 75.873199463 76.029403687 -69.80999756 1241.9202881 1.4126000404 0.0031999999 2.6131000519 2.6468999386 5.5791997910 -31.46339989 -88.65090179 3.9723000526 1.1920000315 2.1319999695 94.500000000
 1812.0000000 1812.0000000 0.0000000000 0.0000000000 399.11178589 20.040599823 28.778400421 0.2877840102 31.296699524 1.9190000296 75.819297791 85.260398865 -69.68000031 1241.1137695 1.4134999514 0.0038999999 2.5055999756 2.6184999943 6.3042998314 -34.63600159 -89.28359985 3.9860000610 1.1958999634 2.1561000347 94.000000000
 1812.5000000 1812.5000000 0.0000000000 0.0000000000 418.70590210 18.735700607 27.684999466 0.2768499851 30.267200470 1.9189000130 75.755302429 92.180297852 -69.68000031 1240.4416504 1.4146000147 0.0038999999 2.3882999420 2.5820000172 6.2343997955 -36.38059998 -89.87660217 3.9823999405 1.1969000101 2.1549999714 93.500000000
 1813.0000000 1813.0000000 0.0000000000 0.0000000000 433.26559448 17.462900162 26.459999084 0.2645999789 29.154899597 1.9184999466 75.820602417 88.308502197 -69.68000031 1239.1636963 1.4134999514 0.0026000000 2.3080999851 2.5397000313 5.4232997894 -36.01900101 -90.46510315 3.9841001034 1.1979999542 2.1472001076 93.000000000
 1813.5000000 1813.5000000 0.0000000000 0.0000000000 437.48278809 16.728200912 25.743700027 0.2574369907 28.519500732 1.9184999466 76.082000732 77.761901855 -69.68000031 1238.4427490 1.4090000391 -0.000100000 2.2857999802 2.5027999878 4.7866001129 -34.30220032 -91.07700348 3.9893999100 1.1970000267 2.1377000809 92.500000000
 1814.0000000 1814.0000000 0.0000000000 0.0000000000 432.50088501 16.936300278 25.938999176 0.2593899965 28.691900253 1.9191000462 76.425498962 70.085601807 -69.30999756 1238.8032227 1.4031000137 -0.002300000 2.3120999336 2.4855000973 4.6093001366 -32.91189957 -91.72019958 3.9781000614 1.1933000088 2.1226000786 92.000000000
 1814.5000000 1814.5000000 0.0000000000 0.0000000000 423.26168823 17.997400284 26.997400284 0.2699739933 29.638299942 1.9191000462 76.652397156 68.996597290 -69.30999756 1239.5164795 1.3991999626 -0.002300000 2.3626000881 2.4986000061 4.7293000221 -33.14659882 -92.37319946 3.9879999161 1.1950000525 2.1291000843 91.500000000
 1815.0000000 1815.0000000 0.0000000000 0.0000000000 414.66308594 19.904300690 28.664699554 0.2866469920 31.187700272 1.9191000462 76.726799011 71.331100464 -69.30999756 1242.7141113 1.3980000019 -0.000600000 2.4116001129 2.5478000641 5.3804998398 -35.02320099 -92.98650360 3.9911999702 1.2014000416 2.1614999771 91.000000000
 1815.5000000 1815.5000000 0.0000000000 0.0000000000 407.89041138 21.951999664 30.297199249 0.3029719889 32.802501678 1.9190000296 76.817199707 78.632598877 -69.19000244 1245.3941650 1.3963999748 0.0003000000 2.4516000748 2.6328999996 6.2395000458 -37.40159988 -93.50119781 3.9765999317 1.1986000538 2.1631000042 90.500000000
 1816.0000000 1816.0000000 0.0000000000 0.0000000000 400.09201050 22.654600143 30.746900558 0.3074690104 33.266101837 1.9193999767 77.026603699 91.508399963 -69.19000244 1240.0861816 1.3927999735 -0.000700000 2.4993999004 2.7485001087 6.7255001068 -38.86520004 -93.87460327 3.9772000313 1.1842000484 2.1182999611 90.000000000
 1816.5000000 1816.5000000 0.0000000000 0.0000000000 387.60949707 21.181600571 29.763000488 0.2976300120 32.261600494 1.9193999767 77.234703064 105.12940216 -69.44000244 1242.3123779 1.3892999887 -0.001700000 2.5799000263 2.8838000298 6.7946000099 -38.55609894 -94.09889984 3.9756000042 1.1758999825 2.0948998928 89.500000000
 1817.0000000 1817.0000000 0.0000000000 0.0000000000 370.04611206 19.684900284 28.483800888 0.2848380208 31.015399933 1.9189000130 77.312301636 120.91329956 -69.44000244 1251.8562012 1.3880000114 -0.001300000 2.7023999691 3.0215001106 6.6163997650 -36.61309814 -94.19760132 3.9732000828 1.1842000484 2.1305999756 89.000000000
 1817.5000000 1817.5000000 0.0000000000 0.0000000000 351.82550049 18.861400604 27.795400620 0.2779540122 30.369400024 1.9186999798 77.333000183 144.45010376 -69.44000244 1248.4720459 1.3875999451 -0.000700000 2.8422999382 3.1382999420 6.1272001266 -34.16749954 -94.20330048 3.9883999825 1.1947000027 2.1682000160 88.500000000
 1818.0000000 1818.0000000 0.0000000000 0.0000000000 338.59710693 18.843500137 27.779800415 0.2777979970 30.354900360 1.9184999466 77.439498901 169.55999756 -69.44000244 1244.5782471 1.3858000040 -0.001400000 2.9533998966 3.2070000172 6.0302000046 -32.53979874 -94.13379669 3.9895999432 1.1960999966 2.1749000549 88.000000000
 1818.5000000 1818.5000000 0.0000000000 0.0000000000 333.84020996 19.389699936 28.241300583 0.2824130058 30.786100388 1.9186999798 77.627998352 176.36729431 -69.44000244 1249.3413086 1.3825999498 -0.002900000 2.9953999519 3.2028999329 6.5313000679 -32.18640137 -93.98280334 3.9783999920 1.1897000074 2.1635999680 87.500000000
 1819.0000000 1819.0000000 0.0000000000 0.0000000000 338.67111206 20.207899094 28.920299530 0.2892029881 31.433399200 1.9193999767 77.805702209 174.46980286 -69.80999756 1248.4333496 1.3795000315 -0.003500000 2.9526998997 3.1138999462 6.8429999352 -32.54779816 -93.72579956 3.9855999947 1.1809999943 2.1368999481 87.000000000
 1819.5000000 1819.5000000 0.0000000000 0.0000000000 352.84341431 20.659799576 29.319799423 0.2931979895 31.822299957 1.9198000431 77.992301941 195.70910645 -69.80999756 1241.5606689 1.3762999773 -0.004000000 2.8341000080 2.9479999542 6.4485001564 -32.81980133 -93.32540131 3.9802999496 1.1755000353 2.1105999947 86.500000000
