# LAS format log file from PETREL
# Project units are specified as depth units
#==================================================================
~Version information
VERS.   2.0:
WRAP.   NO:
#==================================================================
~Well
STRT .FT      295.00000000 :
STOP .FT      3561.0000000 :
STEP .FT     0.50000000 :
NULL .        -999.250000 :
COMP.           : COMPANY
WELL.  GAUNT-WRIGHT UNIT NO. 1-32   : WELL
FLD.            : FIELD
LOC.            : LOCATION
SRVC.           : SERVICE COMPANY
DATE.  2020-07-30 04:07:39   : Log Export Date {yyyy-MM-dd HH:mm:ss}
PROV.           : PROVINCE
UWI.      : UNIQUE WELL ID
API.            : API NUMBER
#==================================================================
~Curve
DEPT .FT                   : DEPTH
DEPT .FT                   : DEPT
AVTX ._                   : AVTX
BVTX ._                   : BVTX
CILD .mS/m                : CILD
CNDL ._                   : CNDL
CNLS ._                   : CNLS
CNPOR ._                  : CNPOR
CNSS ._                   : CNSS
DCAL .in                  : DCAL
DPOR .m3/m3               : DPOR
GR .gAPI                  : GR
LSPD ._                   : LSPD
LTEN ._                   : LTEN
RHOB .g/cm3               : RHOB
RHOC .g/cm3               : RHOC
RILD ._                   : RILD
RILM ._                   : RILM
RLL3 ._                   : RLL3
RxoRt ._                  : RxoRt
SP .mV                    : SP
MCAL .in                  : MCAL
MI ._                     : MI
MN ._                     : MN
SSTVD .FT_                  : SSTVD
~Parameter
#==================================================================
~Ascii
# ...
 2457.5000000 2457.5000000 0.0000000000 0.0000000000 396.21011353 19.602100372 28.415899277 0.2841590047 30.950899124 1.9575999975 81.310997009 92.515296936 -68.20999908 1415.8793945 1.3195999861 -0.028000001 2.5239000320 2.6340000629 5.9745998383 -25.99090004 -59.21409988 4.0524997711 1.2570999861 1.9495999813 -551.5000000
 2458.0000000 2458.0000000 0.0000000000 0.0000000000 402.14849854 18.453800201 27.430799484 0.2743079960 30.033199310 1.9565999508 81.326896667 87.289100647 -68.20999908 1414.9979248 1.3193000555 -0.028600000 2.4865999222 2.6354000568 5.1276001930 -25.41889954 -58.62760162 4.0395998955 1.2350000143 1.8142999411 -552.0000000
 2458.5000000 2458.5000000 0.0000000000 0.0000000000 402.93740845 17.819299698 26.820600510 0.2682060003 29.478599548 1.9569000006 81.829002380 92.694999695 -68.44999695 1415.9938965 1.3107000589 -0.032800000 2.4818000793 2.6033999920 3.6494998932 -21.10120010 -58.04380035 4.0310997963 1.2171000242 1.6744999886 -552.5000000
 2459.0000000 2459.0000000 0.0000000000 0.0000000000 398.83059692 18.675300598 27.631399155 0.2763139904 30.217699051 1.9578000307 82.457298279 103.07279968 -68.44999695 1415.6721191 1.2999999523 -0.037099998 2.5072999001 2.5532000065 3.0067000389 -15.38070011 -57.43629837 4.0401000977 1.2127000093 1.6251000166 -553.0000000
 2459.5000000 2459.5000000 0.0000000000 0.0000000000 395.05130005 21.096000671 29.694400787 0.2969440222 32.193099976 1.9575999975 82.808601379 107.69329834 -68.44999695 1413.1518555 1.2940000296 -0.039200000 2.5313000679 2.5023000240 2.8443999290 -11.21619987 -56.75690079 4.0307002068 1.2238999605 1.6576000452 -553.5000000
 2460.0000000 2460.0000000 0.0000000000 0.0000000000 398.75460815 23.777299881 31.743700027 0.3174369931 34.306800842 1.9569000006 82.767097473 104.61129761 -68.44999695 1414.8217773 1.2947000265 -0.039600000 2.5078001022 2.4632999897 2.9505999088 -10.21300030 -55.95890045 4.0363001823 1.2348999977 1.7194999456 -554.0000000
 2460.5000000 2460.5000000 0.0000000000 0.0000000000 409.91308594 25.497499466 32.806900024 0.3280690014 35.408298492 1.9564000368 82.433898926 100.71630096 -68.20999908 1416.1652832 1.3004000187 -0.038699999 2.4395000935 2.4435999393 3.0445001125 -11.71930027 -55.00130081 4.0440001488 1.2338999510 1.7544000149 -554.5000000
 2461.0000000 2461.0000000 0.0000000000 0.0000000000 421.15390015 25.376899719 32.736499786 0.3273650110 35.336399078 1.9560999870 81.891601563 102.54039764 -68.20999908 1413.4967041 1.3097000122 -0.035500001 2.3743999004 2.4488000870 3.1129999161 -14.17300034 -53.84099960 4.0339999199 1.2311999798 1.7759000063 -555.0000000
 2461.5000000 2461.5000000 0.0000000000 0.0000000000 425.43368530 23.473100662 31.447000504 0.3144699931 33.996299744 1.9565000534 81.146499634 104.06140137 -68.20999908 1412.2398682 1.3223999739 -0.028800000 2.3505001068 2.4839999676 3.3333001137 -16.53459930 -52.43870163 4.0388998985 1.2315000296 1.8055000305 -555.5000000
 2462.0000000 2462.0000000 0.0000000000 0.0000000000 418.69000244 20.640199661 29.302200317 0.2930220068 31.805099487 1.9567999840 80.283401489 98.530700684 -68.33000183 1413.0108643 1.3372000456 -0.020300001 2.3884000778 2.5531001091 3.5151000023 -18.34210014 -50.78770065 4.0352001190 1.2330000401 1.8322999477 -556.0000000
 2462.5000000 2462.5000000 0.0000000000 0.0000000000 400.18969727 18.327100754 27.313199997 0.2731319964 29.925600052 1.9565999508 79.528396606 92.333801270 -68.33000183 1412.7041016 1.3501000404 -0.013400000 2.4988000393 2.6561999321 3.7047998905 -19.39769936 -48.95069885 4.0282001495 1.2359999418 1.8589999676 -556.5000000
 2463.0000000 2463.0000000 0.0000000000 0.0000000000 373.95709229 17.131299973 26.127799988 0.2612780035 28.859100342 1.9565000534 79.064399719 88.448501587 -68.20999908 1412.6556396 1.3580000401 -0.009900000 2.6740999222 2.7869999409 4.1712999344 -19.67889977 -47.06669998 4.0422000885 1.2404999733 1.8876999617 -557.0000000
 2463.5000000 2463.5000000 0.0000000000 0.0000000000 347.06091309 16.722200394 25.738199234 0.2573820055 28.514699936 1.9563000202 78.867797852 83.049301147 -68.20999908 1414.8240967 1.3614000082 -0.008900000 2.8812999725 2.9289000034 4.6153001785 -19.29509926 -45.30950165 4.0388998985 1.2463999987 1.9084000587 -557.5000000
 2464.0000000 2464.0000000 0.0000000000 0.0000000000 325.21389771 16.706399918 25.723600388 0.2572360039 28.501800537 1.9558999538 78.809799194 75.552902222 -68.20999908 1414.9852295 1.3624000549 -0.008700000 3.0748999119 3.0555000305 4.7396001816 -18.38559914 -43.81990051 4.0416002274 1.2496000528 1.9233000278 -558.0000000
 2464.5000000 2464.5000000 0.0000000000 0.0000000000 311.02108765 16.773199081 25.785499573 0.2578549981 28.556400299 1.9563000202 78.828598022 70.219398499 -68.20999908 1413.8446045 1.3619999886 -0.009500000 3.2151999474 3.1377999783 4.9333000183 -17.00429916 -42.66189957 4.0433998108 1.2481000423 1.9308999777 -558.5000000
 2465.0000000 2465.0000000 0.0000000000 0.0000000000 304.14788818 17.294799805 26.290399551 0.2629039884 29.003599167 1.9571000338 78.900100708 72.135696411 -68.33000183 1413.7578125 1.3608000278 -0.011800000 3.2878999710 3.1582000256 4.8537998199 -15.02449989 -41.82809830 4.0244998932 1.2443000078 1.9203000069 -559.0000000
 2465.5000000 2465.5000000 0.0000000000 0.0000000000 302.71240234 18.839700699 27.776399612 0.2777639925 30.351800919 1.9572999477 78.925300598 79.411003113 -68.33000183 1413.9238281 1.3603999615 -0.013800000 3.3034999371 3.1203000546 4.3277997971 -12.41839981 -41.27759933 4.0328001976 1.2403999567 1.8931000233 -559.5000000
 2466.0000000 2466.0000000 0.0000000000 0.0000000000 305.64968872 21.477699280 29.984300613 0.2998430133 32.484100342 1.9567999840 78.790000916 89.999702454 -68.33000183 1411.5965576 1.3626999855 -0.013100000 3.2716999054 3.0453000069 3.7400999069 -9.759499550 -40.97269821 4.0444002151 1.2374999523 1.8677999973 -560.0000000
 2466.5000000 2466.5000000 0.0000000000 0.0000000000 312.62060547 24.072299957 31.980400085 0.3198040128 34.554000854 1.9564000368 78.526397705 101.35220337 -68.33000183 1408.7281494 1.3672000170 -0.009900000 3.1988000870 2.9591000080 3.4463000298 -7.984200001 -40.89329910 4.0373001099 1.2362999916 1.8579000235 -560.5000000
 2467.0000000 2467.0000000 0.0000000000 0.0000000000 322.75961304 25.640499115 32.894298553 0.3289429843 35.497501373 1.9566999674 78.319099426 105.32460022 -68.33000183 1409.2548828 1.3707000017 -0.007700000 3.0982999802 2.8810999393 3.4286000729 -7.593100071 -41.03210068 4.0479998589 1.2394000292 1.8589999676 -561.0000000
 2467.5000000 2467.5000000 0.0000000000 0.0000000000 334.99670410 24.672300339 32.347301483 0.3234730065 34.935501099 1.9566999674 78.336303711 103.71820068 -68.08000183 1412.8922119 1.3703999519 -0.009100000 2.9851000309 2.8215999603 3.4453999996 -8.419799805 -41.38290024 4.0493998528 1.2418999672 1.8593000174 -561.5000000
 2468.0000000 2468.0000000 0.0000000000 0.0000000000 348.40658569 23.127300262 31.108400345 0.3110840023 33.642398834 1.9565999508 78.571800232 105.59750366 -68.08000183 1416.0168457 1.3664000034 -0.013500000 2.8701999187 2.7823998928 3.4100999832 -10.07299995 -41.93310165 4.0398998260 1.2401000261 1.8559999466 -562.0000000
 2468.5000000 2468.5000000 0.0000000000 0.0000000000 361.43798828 22.605199814 30.713699341 0.3071369827 33.231700897 1.9565999508 78.840499878 109.40170288 -68.20999908 1418.5589600 1.3617999554 -0.017500000 2.7667000294 2.7585999966 3.4470000267 -12.19029999 -42.66339874 4.0478000641 1.2388000488 1.8600000143 -562.5000000
 2469.0000000 2469.0000000 0.0000000000 0.0000000000 372.62130737 23.819299698 31.780799866 0.3178080022 34.345500946 1.9560999870 78.961097717 106.08070374 -68.20999908 1419.2980957 1.3597999811 -0.018800000 2.6837000847 2.7409000397 3.6168000698 -14.35890007 -43.55369949 4.0401000977 1.2404999733 1.8770999908 -563.0000000
 2469.5000000 2469.5000000 0.0000000000 0.0000000000 381.83108521 26.263799667 33.396301270 0.3339630067 36.002300262 1.9556000233 78.932502747 97.169898987 -68.20999908 1417.6777344 1.3602999449 -0.017899999 2.6189999580 2.7181000710 3.8619000912 -16.04899979 -44.59130096 4.0383000374 1.2441999912 1.8998999596 -563.5000000
