# LAS format log file from PETREL
# Project units are specified as depth units
#==================================================================
~Version information
VERS.   2.0:
WRAP.   NO:
#==================================================================
~Well
STRT .FT      295.00000000 :
STOP .FT      3561.0000000 :
STEP .FT     0.50000000 :
NULL .        -999.250000 :
COMP.           : COMPANY
WELL.  GAUNT-WRIGHT UNIT NO. 1-32   : WELL
FLD.            : FIELD
LOC.            : LOCATION
SRVC.           : SERVICE COMPANY
DATE.  2020-07-30 04:07:39   : Log Export Date {yyyy-MM-dd HH:mm:ss}
PROV.           : PROVINCE
UWI.      : UNIQUE WELL ID
API.            : API NUMBER
#==================================================================
~Curve
DEPT .FT                   : DEPTH
DEPT .FT                   : DEPT
AVTX ._                   : AVTX
BVTX ._                   : BVTX
CILD .mS/m                : CILD
CNDL ._                   : CNDL
CNLS ._                   : CNLS
CNPOR ._                  : CNPOR
CNSS ._                   : CNSS
DCAL .in                  : DCAL
DPOR .m3/m3               : DPOR
GR .gAPI                  : GR
LSPD ._                   : LSPD
LTEN ._                   : LTEN
RHOB .g/cm3               : RHOB
RHOC .g/cm3               : RHOC
RILD ._                   : RILD
RILM ._                   : RILM
RLL3 ._                   : RLL3
RxoRt ._                  : RxoRt
SP .mV                    : SP
MCAL .in                  : MCAL
MI ._                     : MI
MN ._                     : MN
SSTVD .FT_                  : SSTVD
~Parameter
#==================================================================
~Ascii
# ...
 2895.0000000 2895.0000000 0.0000000000 0.0000000000 183.72070313 2.8624999523 9.7017002106 0.0970170051 13.735699654 7.9882001877 7.0055999756 51.737201691 -37.18000031 1610.0815430 2.5901999474 0.0182000007 5.4429998398 5.3053002357 10.422599792 -30.72290039 -81.46559906 8.1324996948 41.281101227 43.456798553 -989.0000000
 2895.5000000 2895.5000000 0.0000000000 0.0000000000 175.88819885 2.8018999100 9.0250997543 0.0902509987 13.059100151 8.0013999939 6.9759998322 53.390998840 -37.18000031 1606.4635010 2.5906999111 0.0109000001 5.6854000092 5.4920997620 10.171600342 -31.15430069 -80.58619690 8.1350002289 52.747798920 54.188999176 -989.5000000
 2896.0000000 2896.0000000 0.0000000000 0.0000000000 168.15490723 2.7430000305 8.6506004333 0.0865060017 12.683199883 8.0550003052 6.7595000267 50.244300842 -37.18000031 1604.4715576 2.5943999290 0.0057000001 5.9468998909 5.8252000809 14.083100319 -31.55500031 -79.08899689 8.1068000793 65.537696838 68.854598999 -990.0000000
 2896.5000000 2896.5000000 0.0000000000 0.0000000000 160.30259705 2.7376999855 8.6293001175 0.0862930045 12.661800385 8.1104001999 6.4815998077 48.235000610 -37.18000031 1600.1452637 2.5992000103 0.0033000000 6.2382001877 6.2779998779 15.800100327 -30.07279968 -77.10720062 8.0615997314 63.134601593 66.399299622 -990.5000000
 2897.0000000 2897.0000000 0.0000000000 0.0000000000 151.38999939 2.8034999371 9.0504999161 0.0905049965 13.084500313 8.1246004105 6.2333998680 51.509998322 -37.18000031 1598.0712891 2.6033999920 0.0038000001 6.6055002213 6.7802000046 11.519700050 -26.20940018 -74.79820251 8.0424003601 48.858699799 47.080001831 -991.0000000
 2897.5000000 2897.5000000 0.0000000000 0.0000000000 141.86129761 2.9698998928 9.9530000687 0.0995300040 13.986200333 8.1258001328 6.0837998390 56.887199402 -37.06000137 1600.2069092 2.6059999466 0.0052000000 7.0490999222 7.2139000893 9.1132001877 -21.98800087 -72.33570099 8.0391998291 39.506599426 35.166999817 -991.5000000
 2898.0000000 2898.0000000 0.0000000000 0.0000000000 133.67790222 4.3678998947 11.268500328 0.1126850024 15.286299706 8.1258001328 6.2291002274 57.344001770 -37.18000031 1593.2127686 2.6034998894 0.0044999998 7.4807000160 7.4513001442 10.221400261 -19.78669930 -69.89489746 8.0382003784 42.453098297 39.238300323 -992.0000000
 2898.5000000 2898.5000000 0.0000000000 0.0000000000 129.36419678 5.4492001534 12.919300079 0.1291930079 16.886299133 8.1261997223 6.9686999321 53.831298828 -37.06000137 1590.2086182 2.5908000469 0.0016000000 7.7301001549 7.4440999031 13.783200264 -19.26320076 -67.64510345 8.0389995575 55.162200928 53.683998108 -992.5000000
 2899.0000000 2899.0000000 0.0000000000 0.0000000000 128.93750000 6.7673997879 14.792400360 0.1479240060 18.664499283 8.1262998581 8.3393001556 61.344398499 -37.29999924 1591.5468750 2.5673999786 0.0003000000 7.7557001114 7.2757000923 15.112099648 -17.84420013 -65.75199890 8.0382995605 57.805900574 58.162998199 -993.0000000
 2899.5000000 2899.5000000 0.0000000000 0.0000000000 128.65429688 7.7339000702 16.303600311 0.1630360037 20.084999084 8.1259002686 9.7196998596 91.442596436 -37.29999924 1590.9777832 2.5438001156 0.0049000001 7.7727999687 7.1073999405 9.8583002090 -13.88449955 -64.37319946 8.0380001068 40.078098297 39.926601410 -993.5000000
 2900.0000000 2900.0000000 1.0000000000 0.0000000000 125.19170380 7.4135999680 15.873800278 0.1587380022 19.681499481 8.1253004074 10.171400070 125.29979706 -37.43000031 1591.5413818 2.5360999107 0.0142999999 7.9878001213 7.0854001045 5.5658998489 -9.579500198 -63.61640167 8.0348997116 28.459400177 26.515600204 -994.0000000
 2900.5000000 2900.5000000 0.0000000000 0.0000000000 118.97640228 5.5043001175 13.006799698 0.1300680041 16.970100403 8.1080999374 9.2554998398 128.11189270 -37.18000031 1589.9759521 2.5517001152 0.0227000006 8.4049997330 7.3028001785 7.4217000008 -9.114100456 -63.47499847 8.0291004181 36.999099731 37.434299469 -994.5000000
 2901.0000000 2901.0000000 0.0000000000 0.0000000000 112.29250336 3.0013000965 10.001899719 0.1000190005 14.034799576 8.0419998169 7.3357000351 98.211196899 -37.18000031 1594.7441406 2.5845999718 0.0262000002 8.9053001404 7.8070998192 12.202400208 -12.39200020 -63.79539871 8.0357999802 47.856601715 52.095500946 -995.0000000
 2901.5000000 2901.5000000 0.0000000000 0.0000000000 106.31529999 2.4584000111 7.9180002213 0.0791800022 11.945699692 7.9956002235 5.2575998306 64.846000671 -37.06000137 1595.9547119 2.6201000214 0.0254999995 9.4060001373 8.6076002121 14.684499741 -15.94060040 -64.31690216 8.0405998230 53.162200928 55.627101898 -995.5000000
 2902.0000000 2902.0000000 0.0000000000 0.0000000000 100.04319763 1.9579999447 6.8586001396 0.0685859993 10.876099586 7.9892001152 3.7446999550 45.990100861 -36.93000031 1595.1945801 2.6459999084 0.0228000004 9.9956998825 9.6469001770 15.251500130 -17.35869980 -64.77040100 8.0396995544 64.624702454 62.778999329 -996.0000000
 2902.5000000 2902.5000000 0.0000000000 0.0000000000 91.851196289 1.8768999577 6.4218997955 0.0642189980 10.434900284 7.9888000488 3.0048999786 39.492599487 -36.93000031 1595.1326904 2.6586000919 0.0193000007 10.887200356 10.715000153 16.143100739 -15.87329960 -64.96820068 8.0396003723 76.780601501 74.084701538 -996.5000000
 2903.0000000 2903.0000000 0.0000000000 0.0000000000 82.908996582 1.8598999977 6.3099999428 0.0631000027 10.321700096 7.9892997742 2.8986999989 38.232700348 -37.18000031 1594.7441406 2.6603999138 0.0153999999 12.061400414 11.358499527 15.872699738 -12.33670044 -64.83570099 8.0438003540 72.230400085 70.572097778 -997.0000000
 2903.5000000 2903.5000000 0.0000000000 0.0000000000 77.829101563 1.8932000399 6.5295000076 0.0652950034 10.543499947 7.9896001816 3.2799000740 38.119800568 -37.29999924 1595.8227539 2.6538999081 0.0122999996 12.848699570 11.047499657 15.251199722 -9.301400185 -64.38710022 8.0552997589 60.960899353 61.355098724 -997.5000000
 2904.0000000 2904.0000000 0.0000000000 0.0000000000 81.603103638 2.1336998940 7.3143000603 0.0731429979 11.336500168 7.9889998436 4.1893000603 38.760898590 -37.18000031 1594.6590576 2.6384000778 0.0104999999 12.254400253 9.7262001038 15.536199570 -9.280599594 -63.68650055 8.0734996796 56.080101013 58.952999115 -998.0000000
 2904.5000000 2904.5000000 0.0000000000 0.0000000000 97.152702332 2.7953000069 8.9497003555 0.0894970000 12.983499527 7.9892001152 5.7718000412 40.918300629 -37.29999924 1592.7044678 2.6112999916 0.0114000002 10.293100357 7.9640998840 15.237000465 -11.94610023 -62.83229828 8.0841999054 56.559200287 61.368400574 -998.5000000
 2905.0000000 2905.0000000 0.0000000000 0.0000000000 124.09089661 4.5529999733 11.489999771 0.1149000004 15.503199577 7.9916000366 7.8990001678 47.541500092 -37.29999924 1596.5925293 2.5748999119 0.0173000004 8.0586004257 6.3513998985 12.029000282 -14.04479980 -61.97010040 8.0880002975 47.304599762 54.543399811 -999.0000000
 2905.5000000 2905.5000000 0.0000000000 0.0000000000 157.96510315 6.8741002083 14.958100319 0.1495810002 18.820600510 8.0162000656 10.055399895 63.257801056 -37.18000031 1599.0987549 2.5381000042 0.0291000009 6.3305001259 5.1188001633 6.7010002136 -12.69779968 -61.31039810 8.1063003540 27.540599823 32.514499664 -999.5000000
 2906.0000000 2906.0000000 0.0000000000 0.0000000000 193.33799744 10.472800255 19.492000580 0.1949200034 23.041000366 8.0878000259 11.738300323 85.133697510 -37.06000137 1599.0799561 2.5092999935 0.0434999987 5.1722998619 4.2473998070 4.0447001457 -8.538000107 -61.11840057 8.1436004639 14.806599617 14.543299675 -1000.000000
 2906.5000000 2906.5000000 0.0000000000 0.0000000000 229.05329895 14.291600227 23.502799988 0.2350279987 26.569799423 8.1680002213 12.712900162 100.81890106 -37.29999924 1597.9493408 2.4925999641 0.0562000014 4.3657999039 3.6442999840 3.7409000397 -5.556900024 -61.65990067 8.1757001877 11.519200325 9.0085000992 -1000.500000
 2907.0000000 2907.0000000 0.0000000000 0.0000000000 267.99310303 16.729200363 25.744600296 0.2574459910 28.520299911 8.2242002487 12.941699982 103.74960327 -37.18000031 1597.1573486 2.4886999130 0.0658999979 3.7314000130 3.2207000256 3.9997000694 -6.829500198 -63.11299896 8.1823997498 10.469599724 8.2097997665 -1001.000000
