# LAS format log file from PETREL
# Project units are specified as depth units
#==================================================================
~Version information
VERS.   2.0:
WRAP.   NO:
#==================================================================
~Well
STRT .FT      295.00000000 :
STOP .FT      3561.0000000 :
STEP .FT     0.50000000 :
NULL .        -999.250000 :
COMP.           : COMPANY
WELL.  GAUNT-WRIGHT UNIT NO. 1-32   : WELL
FLD.            : FIELD
LOC.            : LOCATION
SRVC.           : SERVICE COMPANY
DATE.  2020-07-30 04:07:39   : Log Export Date {yyyy-MM-dd HH:mm:ss}
PROV.           : PROVINCE
UWI.      : UNIQUE WELL ID
API.            : API NUMBER
#==================================================================
~Curve
DEPT .FT                   : DEPTH
DEPT .FT                   : DEPT
AVTX ._                   : AVTX
BVTX ._                   : BVTX
CILD .mS/m                : CILD
CNDL ._                   : CNDL
CNLS ._                   : CNLS
CNPOR ._                  : CNPOR
CNSS ._                   : CNSS
DCAL .in                  : DCAL
DPOR .m3/m3               : DPOR
GR .gAPI                  : GR
LSPD ._                   : LSPD
LTEN ._                   : LTEN
RHOB .g/cm3               : RHOB
RHOC .g/cm3               : RHOC
RILD ._                   : RILD
RILM ._                   : RILM
RLL3 ._                   : RLL3
RxoRt ._                  : RxoRt
SP .mV                    : SP
MCAL .in                  : MCAL
MI ._                     : MI
MN ._                     : MN
SSTVD .FT_                  : SSTVD
~Parameter
#==================================================================
~Ascii
# ...
 732.50000000 732.50000000 0.0000000000 0.0000000000 790.02258301 23.388299942 31.360200882 0.3136020005 33.905498505 1.8675999641 25.017999649 99.755500793 -70.66999817 837.12591553 2.2822000980 0.1568000019 1.2657999992 1.1959999800 2.0631999969 -20.97940063 -12.99699974 3.9823999405 1.2101999521 1.8622000217 1173.5000000
 733.00000000 733.00000000 0.0000000000 0.0000000000 707.70562744 23.727899551 31.698600769 0.3169859946 34.259601593 1.8679000139 23.016300201 106.17019653 -70.66999817 836.06927490 2.3164000511 0.1674000025 1.4129999876 1.3370000124 2.0899999142 -17.88139915 -12.46959972 3.9734001160 1.1988999844 1.8161000013 1173.0000000
 733.50000000 733.50000000 0.0000000000 0.0000000000 632.17968750 23.754100800 31.722700119 0.3172270060 34.284801483 1.8676999807 21.530199051 109.47740173 -70.91999817 834.81347656 2.3417999744 0.1754000038 1.5817999840 1.4968999624 2.1449999809 -14.43000031 -12.11450005 3.9907999039 1.1951999664 1.8097000122 1172.5000000
 734.00000000 734.00000000 0.0000000000 0.0000000000 562.20007324 23.049299240 31.040800095 0.3104079962 33.571800232 1.8679000139 21.127099991 108.57800293 -70.91999817 835.58850098 2.3487000465 0.1789000034 1.7786999941 1.6599999666 2.2386999130 -10.46170044 -11.94169998 3.9856998920 1.1901999712 1.8157000542 1172.0000000
 734.50000000 734.50000000 0.0000000000 0.0000000000 501.68060303 22.057600021 30.363700867 0.3036369979 32.870601654 1.8679000139 21.813800812 102.56780243 -70.91999817 836.81060791 2.3369998932 0.1810999960 1.9932999611 1.8027000427 2.2451000214 -6.145999908 -11.93929958 3.9795999527 1.1841000319 1.7983000278 1171.5000000
 735.00000000 735.00000000 0.0000000000 0.0000000000 458.54379272 22.211500168 30.460300446 0.3046030104 32.970001221 1.8676999807 23.135000229 98.223800659 -70.91999817 836.24591064 2.3143999577 0.1854999959 2.1807999611 1.9027999640 2.1752998829 -2.285599947 -12.07890034 3.9916999340 1.1823999882 1.7749999762 1171.0000000
 735.50000000 735.50000000 0.0000000000 0.0000000000 436.44601440 22.785200119 30.837699890 0.3083769977 33.360401154 1.8673000336 24.498800278 97.699996948 -70.91999817 836.34497070 2.2911000252 0.1933999956 2.2911999226 1.9499000311 2.1284000874 0.2910000086 -12.31599998 3.9860999584 1.1840000153 1.7659000158 1170.5000000
 736.00000000 736.00000000 0.0000000000 0.0000000000 432.07211304 21.728200912 30.153799057 0.3015379906 32.655998230 1.8674000502 25.500799179 95.577201843 -71.04000092 835.32952881 2.2739000320 0.2035000026 2.3143999577 1.9512000084 2.0908999443 1.3901000023 -12.59239960 3.9867999554 1.1843999624 1.7611000538 1170.0000000
 736.50000000 736.50000000 0.0000000000 0.0000000000 438.99591064 19.670299530 28.471799850 0.2847180068 31.003999710 1.8679000139 26.101299286 91.381500244 -71.04000092 833.22509766 2.2637000084 0.2136999965 2.2778999805 1.9251999855 2.0388998985 1.3199000359 -12.84739971 3.9962000847 1.1816999912 1.7486000061 1169.5000000
 737.00000000 737.00000000 0.0000000000 0.0000000000 450.47540283 18.410600662 27.390899658 0.2739090025 29.996700287 1.8677999973 26.479299545 91.179603577 -70.79000092 830.11157227 2.2572000027 0.2219000012 2.2198998928 1.8905999660 2.0065000057 0.5455999970 -13.03740025 3.9883999825 1.1806000471 1.7342000008 1169.0000000
 737.50000000 737.50000000 0.0000000000 0.0000000000 462.04370117 18.932500839 27.857000351 0.2785699964 30.426500320 1.8681000471 26.638500214 96.406799316 -70.79000092 829.23107910 2.2544999123 0.2289000005 2.1642999649 1.8581000566 2.0420000553 -0.555999994 -13.15410042 3.9851000309 1.1794999838 1.7225999832 1168.5000000
 738.00000000 738.00000000 0.0000000000 0.0000000000 474.90881348 20.791500092 29.436300278 0.2943629920 31.937000275 1.8683999777 26.338800430 97.421302795 -70.79000092 828.92877197 2.2595999241 0.2370000035 2.1057000160 1.8272000551 2.0952000618 -1.938300014 -13.23190022 3.9890000820 1.1725000143 1.7048000097 1168.0000000
 738.50000000 738.50000000 0.0000000000 0.0000000000 494.15258789 22.894199371 30.917400360 0.3091740012 33.443298340 1.8681999445 25.594600677 92.020500183 -70.66999817 830.01007080 2.2723000050 0.2459000051 2.0236999989 1.7882000208 2.0913999081 -3.781599998 -13.33220005 3.9767000675 1.1647000313 1.6865999699 1167.5000000
 739.00000000 739.00000000 0.0000000000 0.0000000000 523.61047363 23.418699265 31.391199112 0.3139120042 33.937999725 1.8679000139 24.993999481 88.546501160 -70.66999817 831.94781494 2.2825999260 0.2517000139 1.9098000526 1.7280999422 2.1136000156 -6.125199795 -13.51109982 3.9814000130 1.1632000208 1.6861000061 1167.0000000
 739.50000000 739.50000000 0.0000000000 0.0000000000 563.32092285 23.304700851 31.276100159 0.3127610087 33.817600250 1.8679000139 25.226299286 88.245399475 -70.79000092 832.70477295 2.2785999775 0.2511999905 1.7752000093 1.6402000189 2.1391000748 -8.685799599 -13.78660011 3.9892001152 1.1661000252 1.6937999725 1166.5000000
 740.00000000 740.00000000 0.0000000000 0.0000000000 608.91931152 23.574300766 31.549800873 0.3154979944 34.103900909 1.8671000004 26.384000778 86.592201233 -70.79000092 832.13757324 2.2588000298 0.2460000068 1.6423000097 1.5290000439 2.0680999756 -10.97749996 -14.12899971 3.9816999435 1.1670000553 1.6930999756 1166.0000000
 740.50000000 740.50000000 0.0000000000 0.0000000000 656.38122559 24.895700455 32.470199585 0.3247019947 35.062500000 1.8674999475 27.934499741 84.433197021 -70.79000092 830.66912842 2.2323000431 0.2407999933 1.5234999657 1.4082000256 1.9687000513 -12.81299973 -14.48060036 3.9888999462 1.1654000282 1.6854000092 1165.5000000
 741.00000000 741.00000000 0.0000000000 0.0000000000 706.63757324 26.053199768 33.196800232 0.3319680095 35.803199768 1.8683999777 29.297199249 83.297996521 -70.91999817 830.99267578 2.2090001106 0.2383999974 1.4151999950 1.2925000191 1.9134999514 -14.48760033 -14.78859997 3.9811000824 1.1631000042 1.6722999811 1165.0000000
 741.50000000 741.50000000 0.0000000000 0.0000000000 760.70477295 24.836099625 32.437599182 0.3243759871 35.028900146 1.8686000109 30.289800644 81.840400696 -70.91999817 831.61767578 2.1919999123 0.2383999974 1.3145999908 1.1921999454 1.8572000265 -16.28989983 -15.02530003 3.9732999802 1.1590000391 1.6519000530 1164.5000000
 742.00000000 742.00000000 0.0000000000 0.0000000000 816.20581055 22.261899948 30.492099762 0.3049210012 33.002700806 1.8681000471 31.042299271 80.110801697 -71.04000092 830.86328125 2.1791999340 0.2381000072 1.2252000570 1.1123000383 1.7905999422 -18.30450058 -15.18540001 3.9879000187 1.1560000181 1.6297999620 1164.0000000
 742.50000000 742.50000000 0.0000000000 0.0000000000 869.20520020 20.393299103 29.082000732 0.2908200026 31.590099335 1.8681000471 31.615100861 80.221900940 -71.04000092 832.63311768 2.1693999767 0.2366999984 1.1505000591 1.0543999672 1.7776000500 -20.51160049 -15.26760006 3.9807000160 1.1547000408 1.6152000427 1163.5000000
 743.00000000 743.00000000 0.0000000000 0.0000000000 912.48901367 20.551300049 29.222799301 0.2922279835 31.727300644 1.8683999777 31.880199432 82.339103699 -70.91999817 835.09991455 2.1647999287 0.2364999950 1.0959000587 1.0185999870 1.8233000040 -22.59830093 -15.26060009 3.9744999409 1.1516000032 1.6101000309 1163.0000000
 743.50000000 743.50000000 0.0000000000 0.0000000000 935.00982666 22.502899170 30.646200180 0.3064619899 33.161800385 1.8680000305 31.776300430 84.530296326 -70.91999817 841.23327637 2.1665999889 0.2392999977 1.0694999695 1.0053999424 1.8723000288 -23.95269966 -15.14470005 3.9816000462 1.1471999884 1.6023000479 1162.5000000
 744.00000000 744.00000000 0.0000000000 0.0000000000 926.11932373 24.645299911 32.332298279 0.3233229816 34.919898987 1.8675999641 31.438999176 82.352302551 -70.91999817 844.17297363 2.1723999977 0.2440000027 1.0798000097 1.0155999660 1.8736000061 -24.02379990 -14.90369987 3.9772000313 1.1439000368 1.5857000351 1162.0000000
 744.50000000 744.50000000 0.0000000000 0.0000000000 881.22357178 26.421699524 33.568199158 0.3356820047 36.172100067 1.8674999475 30.974100113 77.701499939 -70.55000305 848.68127441 2.1802999973 0.2481999993 1.1347999573 1.0509999990 1.8684999943 -22.61510086 -14.53759956 3.9844000340 1.1416000128 1.5678000450 1161.5000000
