# LAS format log file from PETREL
# Project units are specified as depth units
#==================================================================
~Version information
VERS.   2.0:
WRAP.   NO:
#==================================================================
~Well
STRT .FT      295.00000000 :
STOP .FT      3561.0000000 :
STEP .FT     0.50000000 :
NULL .        -999.250000 :
COMP.           : COMPANY
WELL.  GAUNT-WRIGHT UNIT NO. 1-32   : WELL
FLD.            : FIELD
LOC.            : LOCATION
SRVC.           : SERVICE COMPANY
DATE.  2020-07-30 04:07:39   : Log Export Date {yyyy-MM-dd HH:mm:ss}
PROV.           : PROVINCE
UWI.      : UNIQUE WELL ID
API.            : API NUMBER
#==================================================================
~Curve
DEPT .FT                   : DEPTH
DEPT .FT                   : DEPT
AVTX ._                   : AVTX
BVTX ._                   : BVTX
CILD .mS/m                : CILD
CNDL ._                   : CNDL
CNLS ._                   : CNLS
CNPOR ._                  : CNPOR
CNSS ._                   : CNSS
DCAL .in                  : DCAL
DPOR .m3/m3               : DPOR
GR .gAPI                  : GR
LSPD ._                   : LSPD
LTEN ._                   : LTEN
RHOB .g/cm3               : RHOB
RHOC .g/cm3               : RHOC
RILD ._                   : RILD
RILM ._                   : RILM
RLL3 ._                   : RLL3
RxoRt ._                  : RxoRt
SP .mV                    : SP
MCAL .in                  : MCAL
MI ._                     : MI
MN ._                     : MN
SSTVD .FT_                  : SSTVD
~Parameter
#==================================================================
~Ascii
# ...
 945.00000000 945.00000000 0.0000000000 0.0000000000 408.87820435 35.261001587 39.919399261 0.3991940022 40.948398590 1.8682999611 85.154296875 85.196899414 -71.16000366 906.42327881 1.2539000511 -0.048599999 2.4456999302 2.1770999432 3.2067999840 -13.72589970 -2.022799969 3.9860999584 1.3463000059 2.0431001186 961.00000000
 945.50000000 945.50000000 0.0000000000 0.0000000000 409.63919067 31.162099838 37.128501892 0.3712850213 39.134700775 1.8674999475 85.094497681 91.479598999 -71.16000366 902.34649658 1.2548999786 -0.046900000 2.4412000179 2.2221000195 3.4263999462 -15.65429974 -2.012200117 3.9735000134 1.3415999413 2.0787999630 960.50000000
 946.00000000 946.00000000 0.0000000000 0.0000000000 411.29159546 27.292499542 34.457599640 0.3445760012 37.017700195 1.8673000336 85.235000610 96.885398865 -71.16000366 899.80603027 1.2525000572 -0.047499999 2.4314000607 2.2776000500 3.7311999798 -17.14500046 -2.060300112 3.9772999287 1.3264000416 2.0845999718 960.00000000
 946.50000000 946.50000000 0.0000000000 0.0000000000 411.79458618 25.673799515 32.915599823 0.3291560113 35.519100189 1.8674999475 85.502899170 97.489303589 -71.27999878 899.14068604 1.2479000092 -0.049199998 2.4284000397 2.3236000538 3.8687000275 -17.26510048 -2.181200027 3.9797999859 1.3041000366 2.0513000488 959.50000000
 947.00000000 947.00000000 0.0000000000 0.0000000000 410.54721069 25.420400620 32.761600494 0.3276160061 35.361999512 1.8680000305 85.822303772 95.460601807 -71.27999878 900.41967773 1.2424000502 -0.050999999 2.4358000755 2.3434000015 3.5011000633 -15.82820034 -2.358999968 3.9721999168 1.2749999762 1.9593000412 959.00000000
 947.50000000 947.50000000 0.0000000000 0.0000000000 411.52169800 26.699699402 33.890098572 0.3389009833 36.485000610 1.8687000275 86.132499695 91.858200073 -71.27999878 902.71649170 1.2371000051 -0.052200001 2.4300000668 2.3317000866 3.1171998978 -13.78559971 -2.558700085 3.9800999165 1.2440999746 1.8360999823 958.50000000
 948.00000000 948.00000000 0.0000000000 0.0000000000 416.54019165 28.753700256 35.517398834 0.3551739752 37.932498932 1.8683999777 86.405197144 86.809402466 -71.27999878 903.87707520 1.2324999571 -0.052900001 2.4007000923 2.2980000973 2.9728000164 -12.20230007 -2.745699883 3.9867999554 1.2197999954 1.7225999832 958.00000000
 948.50000000 948.50000000 0.0000000000 0.0000000000 422.31930542 29.942899704 36.280399323 0.3628039956 38.525600433 1.8673000336 86.668296814 84.575103760 -71.27999878 904.16711426 1.2280000448 -0.053900000 2.3678998947 2.2625000477 2.8980998993 -11.43210030 -2.899899960 3.9774999619 1.2072999477 1.6477999687 957.50000000
 949.00000000 949.00000000 0.0000000000 0.0000000000 426.26748657 29.508899689 36.005599976 0.3600560129 38.317600250 1.8674999475 86.985900879 87.627998352 -71.04000092 904.76501465 1.2224999666 -0.056400001 2.3459000587 2.2462999821 2.8231000900 -11.50179958 -3.016999960 3.9860000610 1.2086000443 1.6247999668 957.00000000
 949.50000000 949.50000000 0.0000000000 0.0000000000 427.58099365 28.946899414 35.644500732 0.3564450145 38.034698486 1.8679000139 87.372299194 91.205902100 -71.04000092 905.61431885 1.2158999443 -0.061299998 2.3387000561 2.2646000385 2.9063000679 -12.26669979 -3.101500034 3.9795999527 1.2188999653 1.6536999941 956.50000000
 950.00000000 950.00000000 0.0000000000 0.0000000000 425.35250854 29.288299561 35.865100861 0.3586510122 38.208801270 1.8676999807 87.708503723 90.965698242 -71.16000366 907.36608887 1.2101999521 -0.066799998 2.3510000706 2.3243999481 3.1059000492 -13.20090008 -3.157700062 3.9719998837 1.2267999649 1.7088999748 956.00000000
 950.50000000 950.50000000 0.0000000000 0.0000000000 418.41958618 30.902399063 36.926200867 0.3692620099 38.993499756 1.8677999973 87.812599182 88.599197388 -71.16000366 907.31341553 1.2084000111 -0.070200004 2.3898999691 2.4256000519 3.2992999554 -13.53479958 -3.185499907 3.9791998863 1.2280999422 1.7498999834 955.50000000
 951.00000000 951.00000000 0.0000000000 0.0000000000 404.77389526 32.340499878 38.103500366 0.3810350001 39.788299561 1.8675999641 87.629203796 85.204200745 -70.91999817 904.88848877 1.2115000486 -0.069799997 2.4704999924 2.5622999668 3.3496000767 -12.75479984 -3.183599949 3.9732999802 1.2273000479 1.7647000551 955.00000000
 951.50000000 951.50000000 0.0000000000 0.0000000000 383.55270386 32.045299530 37.879600525 0.3787960112 39.641601563 1.8674000502 87.273803711 81.865997314 -70.91999817 905.07238770 1.2175999880 -0.066500001 2.6071999073 2.7216999531 3.1238999367 -11.36919975 -3.156800032 3.9718999863 1.2265000343 1.7575999498 954.50000000
 952.00000000 952.00000000 0.0000000000 0.0000000000 358.19689941 30.026500702 36.333599091 0.3633359969 38.565299988 1.8668999672 86.899696350 84.074096680 -70.91999817 908.68908691 1.2239999771 -0.062399998 2.7918000221 2.8817999363 2.8773999214 -10.95349979 -3.115700006 3.9844999313 1.2288000584 1.7625999451 954.00000000
 952.50000000 952.50000000 0.0000000000 0.0000000000 335.32818604 28.296899796 35.208801270 0.3520880044 37.677700043 1.8673000336 86.583396912 88.642997742 -71.04000092 909.38787842 1.2294000387 -0.059099998 2.9821999073 3.0099000931 3.4621000290 -12.48219967 -3.067300081 3.9797999859 1.2362999916 1.8118000031 953.50000000
 953.00000000 953.00000000 0.0000000000 0.0000000000 318.98849487 28.386100769 35.270198822 0.3527019918 37.729099274 1.8681999445 86.292701721 84.545600891 -71.04000092 908.32092285 1.2344000340 -0.056800000 3.1349000931 3.0727000237 4.7926001549 -14.87139988 -3.006500006 3.9814000130 1.2414000034 1.8719999790 953.00000000
 953.50000000 953.50000000 0.0000000000 0.0000000000 307.15570068 29.316999435 35.883499146 0.3588349819 38.223098755 1.8684999943 85.935203552 76.172599792 -71.27999878 908.10858154 1.2404999733 -0.054299999 3.2557001114 3.0539999008 5.2989997864 -16.02700043 -2.922499895 3.9851000309 1.2357000113 1.8717000484 952.50000000
 954.00000000 954.00000000 0.0000000000 0.0000000000 298.17999268 30.302200317 36.511501312 0.3651150167 38.696300507 1.8687000275 85.474197388 78.243400574 -71.27999878 903.79772949 1.2483999729 -0.050700001 3.3536999226 2.9681000710 4.8326001167 -15.09329987 -2.815799952 3.9711000919 1.2250000238 1.8126000166 952.00000000
 954.50000000 954.50000000 0.0000000000 0.0000000000 295.00961304 31.053100586 37.041301727 0.3704130054 39.074100494 1.8688000441 85.001197815 88.850700378 -71.16000366 906.26611328 1.2565000057 -0.046500001 3.3896999359 2.8513000011 4.4573001862 -13.02309990 -2.705499887 3.9784998894 1.2194999456 1.7649999857 951.50000000
 955.00000000 955.00000000 0.0000000000 0.0000000000 297.94259644 30.945400238 36.958499908 0.3695850074 39.016201019 1.8682999611 84.682098389 92.908699036 -71.16000366 909.98901367 1.2618999481 -0.043200001 3.3564000130 2.7425999641 4.1384000778 -10.90229988 -2.616800070 3.9897000790 1.2170000076 1.7396999598 951.00000000
 955.50000000 955.50000000 0.0000000000 0.0000000000 302.02069092 29.785800934 36.180801392 0.3618080020 38.450901031 1.8680000305 84.647903442 89.344200134 -71.16000366 910.59637451 1.2625000477 -0.042500000 3.3110001087 2.6705999374 3.7104001045 -9.006500244 -2.560699940 3.9818000793 1.2153999805 1.7229000330 950.50000000
 956.00000000 956.00000000 0.0000000000 0.0000000000 304.15420532 28.768100739 35.527000427 0.3552699983 37.940200806 1.8681999445 84.927696228 87.818901062 -70.91999817 913.00317383 1.2576999664 -0.045000002 3.2878000736 2.6489000320 3.5934998989 -7.494299889 -2.523999929 3.9800000191 1.2186000347 1.7244000435 950.00000000
 956.50000000 956.50000000 0.0000000000 0.0000000000 304.35180664 28.170799255 35.121101379 0.3512110114 37.603599548 1.8680000305 85.443496704 89.616500854 -70.91999817 909.54260254 1.2489000559 -0.050500002 3.2857000828 2.6777000427 3.6366999149 -6.407000065 -2.476300001 3.9842000008 1.2237999439 1.7505999804 949.50000000
 957.00000000 957.00000000 0.0000000000 0.0000000000 302.74060059 27.517900467 34.639900208 0.3463990092 37.182998657 1.8676999807 86.032501221 90.173500061 -70.55000305 907.71997070 1.2388000488 -0.057700001 3.3032000065 2.7432999611 3.6096999645 -5.473499775 -2.383399963 3.9756000042 1.2244000435 1.7790999413 949.00000000
