# LAS format log file from PETREL
# Project units are specified as depth units
#==================================================================
~Version information
VERS.   2.0:
WRAP.   NO:
#==================================================================
~Well
STRT .FT      295.00000000 :
STOP .FT      3561.0000000 :
STEP .FT     0.50000000 :
NULL .        -999.250000 :
COMP.           : COMPANY
WELL.  GAUNT-WRIGHT UNIT NO. 1-32   : WELL
FLD.            : FIELD
LOC.            : LOCATION
SRVC.           : SERVICE COMPANY
DATE.  2020-07-30 04:07:39   : Log Export Date {yyyy-MM-dd HH:mm:ss}
PROV.           : PROVINCE
UWI.      : UNIQUE WELL ID
API.            : API NUMBER
#==================================================================
~Curve
DEPT .FT                   : DEPTH
DEPT .FT                   : DEPT
AVTX ._                   : AVTX
BVTX ._                   : BVTX
CILD .mS/m                : CILD
CNDL ._                   : CNDL
CNLS ._                   : CNLS
CNPOR ._                  : CNPOR
CNSS ._                   : CNSS
DCAL .in                  : DCAL
DPOR .m3/m3               : DPOR
GR .gAPI                  : GR
LSPD ._                   : LSPD
LTEN ._                   : LTEN
RHOB .g/cm3               : RHOB
RHOC .g/cm3               : RHOC
RILD ._                   : RILD
RILM ._                   : RILM
RLL3 ._                   : RLL3
RxoRt ._                  : RxoRt
SP .mV                    : SP
MCAL .in                  : MCAL
MI ._                     : MI
MN ._                     : MN
SSTVD .FT_                  : SSTVD
~Parameter
#==================================================================
~Ascii
# ...
 3107.5000000 3107.5000000 0.0000000000 0.0000000000 47.882400513 1.6366000175 5.5220999718 0.0552209988 9.5262002945 7.7722001076 4.4541001320 38.531101227 -36.81000137 1662.8610840 2.6338000298 0.0627999976 20.884500504 23.652200699 25.771699905 -10.84469986 -103.6956024 7.9498000145 44.528099060 42.921001434 -1201.500000
 3108.0000000 3108.0000000 0.0000000000 0.0000000000 56.384700775 1.8276000023 6.1245999336 0.0612460002 10.134499550 7.7744002342 4.9735999107 34.751399994 -37.18000031 1666.2763672 2.6250000000 0.0665000007 17.735300064 20.465299606 24.270799637 -14.84160042 -104.5353012 7.9496998787 35.985500336 38.528598785 -1202.000000
 3108.5000000 3108.5000000 0.0000000000 0.0000000000 67.269096375 2.0072999001 7.0211000443 0.0702110007 11.040300369 7.7761998177 5.4948000908 32.704200745 -37.29999924 1665.6838379 2.6159999371 0.0719999969 14.865699768 17.206199646 22.723300934 -19.12159920 -105.3908997 7.9387001991 25.185600281 31.222200394 -1202.500000
 3109.0000000 3109.0000000 0.0000000000 0.0000000000 80.826698303 2.6229000092 8.2756996155 0.0827569962 12.305999756 7.7760000229 6.2883000374 33.851200104 -37.18000031 1675.4476318 2.6024999619 0.0776000023 12.372099876 14.116800308 21.334100723 -23.31500053 -106.2552032 7.8969001770 16.624500275 23.754600525 -1203.000000
 3109.5000000 3109.5000000 0.0000000000 0.0000000000 97.487098694 2.9505000114 9.9194002151 0.0991940051 13.952599525 7.7653999329 7.5683999062 35.759998322 -37.29999924 1674.6878662 2.5806000233 0.0826999992 10.257800102 11.384200096 19.900800705 -27.02639961 -107.1162033 7.8137001991 11.925499916 18.325799942 -1203.500000
 3110.0000000 3110.0000000 0.0000000000 0.0000000000 117.94349670 4.8373999596 11.899600029 0.1189960018 15.902500153 7.7326998711 9.1862001419 37.325298309 -36.93000031 1659.5477295 2.5529000759 0.0878999978 8.4785995483 9.1173000336 17.152200699 -30.04980087 -107.9557037 7.6726999283 9.1743001938 14.505999565 -1204.000000
 3110.5000000 3110.5000000 0.0000000000 0.0000000000 143.04620361 6.3859000206 14.252099991 0.1425209939 18.154399872 7.6890001297 10.805999756 38.261001587 -36.93000031 1649.8479004 2.5251998901 0.0932999998 6.9906997681 7.3413000107 14.571900368 -32.41370010 -108.7492981 7.5693001747 7.5981001854 12.227399826 -1204.500000
 3111.0000000 3111.0000000 0.0000000000 0.0000000000 172.58949280 8.0494003296 16.682800293 0.1668280065 20.440700531 7.6760001183 12.254799843 38.420898438 -36.81000137 1655.7379150 2.5004000664 0.0974000022 5.7940998077 6.0184998512 12.977899551 -33.96060181 -109.4645996 7.5977997780 6.9984002113 11.062100410 -1205.000000
 3111.5000000 3111.5000000 0.0000000000 0.0000000000 203.79049683 8.9652004242 17.957700729 0.1795770079 21.630699158 7.6894998550 13.523200035 38.795299530 -37.06000137 1663.2611084 2.4788000584 0.0983999968 4.9070000648 5.0819001198 11.019000053 -34.25030136 -110.0612030 7.6638998985 6.9116001129 10.468400002 -1205.500000
 3112.0000000 3112.0000000 0.0000000000 0.0000000000 231.48950195 8.3121004105 17.016500473 0.1701650023 20.753099442 7.7119998932 14.501000404 41.721199036 -36.93000031 1655.8803711 2.4619998932 0.0966000035 4.3199000359 4.4615998268 8.5893001556 -33.60760117 -110.4979019 7.6824998856 6.9254999161 10.206899643 -1206.000000
 3112.5000000 3112.5000000 0.0000000000 0.0000000000 250.99809265 6.5784001350 14.517999649 0.1451800019 18.405599594 7.7168998718 14.829600334 46.319000244 -37.18000031 1658.9796143 2.4563999176 0.0935000032 3.9841001034 4.1012001038 6.9732999802 -34.82889938 -110.7481995 7.6915001869 7.1384000778 10.325599670 -1206.500000
 3113.0000000 3113.0000000 0.0000000000 0.0000000000 260.35299683 4.7170000076 11.715999603 0.1171599925 15.723699570 7.7052001953 14.045900345 50.200901031 -37.18000031 1657.3487549 2.4697999954 0.0896999985 3.8408999443 3.9635999203 6.7329001427 -42.05220032 -110.8154984 7.7073001862 9.6450996399 13.281999588 -1207.000000
 3113.5000000 3113.5000000 0.0000000000 0.0000000000 260.11999512 2.8029999733 9.0417003632 0.0904170051 13.075699806 7.7002000809 11.937800407 55.157199860 -37.18000031 1653.6832275 2.5058999062 0.0838000029 3.8443999290 4.0325999260 8.9109001160 -54.75960159 -110.7329025 7.7312002182 20.167600632 27.603300095 -1207.500000
 3114.0000000 3114.0000000 0.0000000000 0.0000000000 251.93209839 1.9571000338 6.8551001549 0.0685510039 10.872599602 7.7362999916 8.9050998688 60.080101013 -37.06000137 1657.7792969 2.5576999187 0.0746999979 3.9693000317 4.3118000031 18.572399139 -67.33660126 -110.5453033 7.8183999062 41.970600128 61.907299042 -1208.000000
 3114.5000000 3114.5000000 0.0000000000 0.0000000000 236.84069824 1.6633000374 5.5875000954 0.0558749996 9.5922002792 7.7895002365 6.0188999176 62.005500793 -37.06000137 1668.8089600 2.6071000099 0.0628999993 4.2221999168 4.8221001625 34.033000946 -75.17279816 -110.2864990 7.9102997780 60.606399536 95.508003235 -1208.500000
 3115.0000000 3115.0000000 0.0000000000 0.0000000000 215.18769836 1.4530999660 5.1135001183 0.0511349998 9.1142997742 7.8140001297 4.4134998322 60.006999969 -37.06000137 1675.3137207 2.6345000267 0.0511999987 4.6470999718 5.5957999229 38.640201569 -76.54239655 -109.9718018 7.9324002266 56.592601776 93.574699402 -1209.000000
 3115.5000000 3115.5000000 0.0000000000 0.0000000000 188.18319702 1.4661999941 5.1413998604 0.0514139980 9.1423997879 7.8221998215 4.3312001228 53.320999146 -37.06000137 1669.4323730 2.6359000206 0.0427000001 5.3140001297 6.6606001854 33.182899475 -71.74430084 -109.6067963 7.9053001404 35.549198151 62.138599396 -1209.500000
 3116.0000000 3116.0000000 0.0000000000 0.0000000000 158.95629883 1.5842000246 5.3997998238 0.0539979972 9.4027996063 7.8404998779 5.0836000443 44.554000854 -37.18000031 1658.3521729 2.6231000423 0.0390999988 6.2909998894 8.0093002319 29.688299179 -62.35889816 -109.2006989 7.8586001396 18.569799423 33.553901672 -1210.000000
 3116.5000000 3116.5000000 0.0000000000 0.0000000000 131.88940430 1.6900999546 5.6561999321 0.0565619990 9.6614999771 7.8537001610 5.9007000923 38.578601837 -37.18000031 1651.0285645 2.6091001034 0.0392000005 7.5820999146 9.5605001450 25.524900436 -50.85129929 -108.7674026 7.8133001328 12.898799896 21.700300217 -1210.500000
 3117.0000000 3117.0000000 0.0000000000 0.0000000000 110.93869781 1.7295000553 5.7642998695 0.0576430000 9.7706003189 7.8555002213 6.4071998596 37.750701904 -37.18000031 1652.3217773 2.6003999710 0.0401000008 9.0139999390 11.144499779 20.644800186 -40.37879944 -108.3151016 7.7657999992 14.028100014 21.250699997 -1211.000000
 3117.5000000 3117.5000000 0.0000000000 0.0000000000 97.237602234 1.6868000031 5.6473999023 0.0564740002 9.6526002884 7.8562998772 6.4977002144 40.726299286 -37.06000137 1659.0501709 2.5989000797 0.0395999998 10.284099579 12.563199997 19.830499649 -33.56399918 -107.8367004 7.7583999634 21.160699844 31.510900497 -1211.500000
 3118.0000000 3118.0000000 0.0000000000 0.0000000000 89.027198792 1.5587999821 5.3428001404 0.0534280017 9.3453998566 7.8695001602 6.1498999596 44.195400238 -37.06000137 1656.7703857 2.6047999859 0.0381000005 11.232500076 13.702799797 23.078199387 -30.67480087 -107.3149033 7.8362002373 31.092899323 49.807899475 -1212.000000
 3118.5000000 3118.5000000 1.0000000000 0.0000000000 83.738800049 1.4002000093 5.0004000664 0.0500040017 9.0003995895 7.8917999268 5.4573998451 45.715900421 -36.93000031 1664.3712158 2.6166999340 0.0370999984 11.941900253 14.590700150 24.727399826 -29.94980049 -106.7385025 7.9211997986 34.901199341 59.758998871 -1212.500000
 3119.0000000 3119.0000000 0.0000000000 1.0000000000 79.295501709 1.2848999500 4.7498002052 0.0474980026 8.7482004166 7.9011001587 4.6856999397 46.337600708 -36.81000137 1664.7908936 2.6298999786 0.0361000001 12.611100197 15.345100403 25.026500702 -29.54299927 -106.1178970 7.9604001045 34.533599854 57.282798767 -1213.000000
 3119.5000000 3119.5000000 0.0000000000 0.0000000000 74.706001282 1.2337000370 4.6342000961 0.0463420004 8.6319999695 7.9089999199 4.1497001648 48.244499207 -36.93000031 1655.8300781 2.6389999390 0.0329999998 13.385800362 16.082099915 26.707500458 -28.61650085 -105.4850998 7.9788999557 38.552299500 55.599399567 -1213.500000
