# LAS format log file from PETREL
# Project units are specified as depth units
#==================================================================
~Version information
VERS.   2.0:
WRAP.   NO:
#==================================================================
~Well
STRT .FT      295.00000000 :
STOP .FT      3561.0000000 :
STEP .FT     0.50000000 :
NULL .        -999.250000 :
COMP.           : COMPANY
WELL.  GAUNT-WRIGHT UNIT NO. 1-32   : WELL
FLD.            : FIELD
LOC.            : LOCATION
SRVC.           : SERVICE COMPANY
DATE.  2020-07-30 04:07:39   : Log Export Date {yyyy-MM-dd HH:mm:ss}
PROV.           : PROVINCE
UWI.      : UNIQUE WELL ID
API.            : API NUMBER
#==================================================================
~Curve
DEPT .FT                   : DEPTH
DEPT .FT                   : DEPT
AVTX ._                   : AVTX
BVTX ._                   : BVTX
CILD .mS/m                : CILD
CNDL ._                   : CNDL
CNLS ._                   : CNLS
CNPOR ._                  : CNPOR
CNSS ._                   : CNSS
DCAL .in                  : DCAL
DPOR .m3/m3               : DPOR
GR .gAPI                  : GR
LSPD ._                   : LSPD
LTEN ._                   : LTEN
RHOB .g/cm3               : RHOB
RHOC .g/cm3               : RHOC
RILD ._                   : RILD
RILM ._                   : RILM
RLL3 ._                   : RLL3
RxoRt ._                  : RxoRt
SP .mV                    : SP
MCAL .in                  : MCAL
MI ._                     : MI
MN ._                     : MN
SSTVD .FT_                  : SSTVD
~Parameter
#==================================================================
~Ascii
# ...
 1157.5000000 1157.5000000 0.0000000000 0.0000000000 120.29519653 21.944799423 30.292600632 0.3029260039 32.797798157 1.8674000502 47.434700012 79.521697998 -69.44000244 987.30859375 1.8989000320 0.1931000054 8.3128995895 4.7849998474 3.6389999390 31.003200531 -0.351900011 3.9976000786 1.2000000477 1.7094999552 748.50000000
 1158.0000000 1158.0000000 0.0000000000 0.0000000000 121.60919952 23.141899109 31.121500015 0.3112150133 33.656101227 1.8676999807 47.186100006 75.298797607 -69.44000244 986.91162109 1.9031000137 0.1939000040 8.2230997086 4.4458999634 3.8554999828 28.827100754 -0.236499995 4.0008997917 1.2036999464 1.7082999945 748.00000000
 1158.5000000 1158.5000000 0.0000000000 0.0000000000 127.20800018 25.424200058 32.763801575 0.3276380301 35.364299774 1.8686000109 46.533199310 72.982902527 -69.30999756 985.80761719 1.9142999649 0.1965000033 7.8611001968 4.1146998405 3.8722000122 26.026699066 -0.137700006 4.0169000626 1.2019000053 1.7015999556 747.50000000
 1159.0000000 1159.0000000 0.0000000000 0.0000000000 138.77139282 27.097099304 34.288398743 0.3428839743 36.861598969 1.8696999550 45.796901703 73.529800415 -69.30999756 986.49682617 1.9269000292 0.2003999949 7.2060999870 3.8292000294 3.8394000530 22.200700760 -0.056299999 4.0064001083 1.1948000193 1.6849000454 747.00000000
 1159.5000000 1159.5000000 0.0000000000 0.0000000000 156.69360352 27.634199142 34.729900360 0.3472990096 37.263401031 1.8697999716 45.133499146 74.356697083 -69.30999756 986.22357178 1.9381999969 0.2053000033 6.3818998337 3.6013000011 3.8043999672 17.247400284 0.0273000002 3.9995000362 1.1909999847 1.6728999615 746.50000000
 1160.0000000 1160.0000000 0.0000000000 0.0000000000 178.29609680 26.579599380 33.751701355 0.3375170231 36.351299286 1.8690999746 44.492198944 75.567001343 -69.30999756 987.62768555 1.9492000341 0.2108000070 5.6086001396 3.4242999554 3.8213000298 11.920399666 0.1409000009 4.0034999847 1.1923999786 1.6826000214 746.00000000
 1160.5000000 1160.5000000 0.0000000000 0.0000000000 200.31219482 24.481899261 32.239398956 0.3223939836 34.823600769 1.8694000244 43.704200745 78.768203735 -69.30999756 992.03698730 1.9627000093 0.2167000026 4.9921998978 3.2797000408 3.9405000210 7.0373997688 0.3018000126 3.9976000786 1.1970000267 1.7177000046 745.50000000
 1161.0000000 1161.0000000 0.0000000000 0.0000000000 223.03970337 23.221399307 31.195199966 0.3119519949 33.733001709 1.8693000078 42.728401184 81.999198914 -69.30999756 991.80578613 1.9793000221 0.2228000015 4.4835000038 3.1447000504 4.0253000259 2.7374000549 0.5077000260 4.0039000511 1.2021000385 1.7567000389 745.00000000
 1161.5000000 1161.5000000 0.0000000000 0.0000000000 248.58189392 22.685499191 30.767999649 0.3076800108 33.288101196 1.8688000441 41.895301819 82.668197632 -69.30999756 990.15881348 1.9936000109 0.2278999984 4.0227999687 3.0023000240 3.9688000679 -1.022099972 0.7414000034 4.0057997704 1.2045999765 1.7781000137 744.50000000
 1162.0000000 1162.0000000 0.0000000000 0.0000000000 276.89849854 22.345300674 30.544799805 0.3054479957 33.057098389 1.8694000244 41.838001251 78.286003113 -69.30999756 991.62237549 1.9946000576 0.2283000052 3.6113998890 2.8501000404 3.8777999878 -3.964799881 0.9843000174 3.9981000423 1.2022000551 1.7741999626 744.00000000
 1162.5000000 1162.5000000 0.0000000000 0.0000000000 304.78381348 21.514200211 30.009899139 0.3000989854 32.509998322 1.8695000410 43.048500061 73.677001953 -69.30999756 988.56811523 1.9738999605 0.2211000025 3.2809998989 2.7000000477 3.6507000923 -5.723700047 1.2273999453 4.0071001053 1.1936999559 1.7407000065 743.50000000
 1163.0000000 1163.0000000 0.0000000000 0.0000000000 327.60751343 20.323400497 29.020399094 0.2902039886 31.530300140 1.8689999580 45.440101624 76.276199341 -69.30999756 987.19952393 1.9329999685 0.2063000053 3.0524001122 2.5696001053 3.2223000526 -6.424399853 1.4759999514 4.0152997971 1.1855000257 1.6892000437 743.00000000
 1163.5000000 1163.5000000 0.0000000000 0.0000000000 343.98889160 19.117700577 28.014999390 0.2801499963 30.573799133 1.8688999414 48.352401733 82.620101929 -69.44000244 991.53997803 1.8832000494 0.1878000051 2.9070999622 2.4721999168 2.9749000072 -7.096199989 1.7467999458 4.0086002350 1.1818000078 1.6536999941 742.50000000
 1164.0000000 1164.0000000 0.0000000000 0.0000000000 357.80151367 18.687999725 27.642599106 0.2764259875 30.228099823 1.8687000275 50.990001678 85.506103516 -69.44000244 993.07397461 1.8380999565 0.1704999954 2.7948000431 2.4110000134 3.0555999279 -8.947299957 2.0594999790 4.0184001923 1.1832000017 1.6585999727 742.00000000
 1164.5000000 1164.5000000 0.0000000000 0.0000000000 373.92950439 19.198099136 28.082399368 0.2808240056 30.636899948 1.8687000275 52.926498413 82.519203186 -69.44000244 992.48767090 1.8049999475 0.1572999954 2.6742999554 2.3808999062 3.4651000500 -12.02309990 2.4249000549 4.0103998184 1.1858999729 1.6849999428 741.50000000
 1165.0000000 1165.0000000 0.0000000000 0.0000000000 392.53729248 20.183900833 28.899799347 0.2889980078 31.413600922 1.8688000441 54.339000702 75.320098877 -69.44000244 992.70507813 1.7807999849 0.1471000016 2.5474998951 2.3728001118 3.8097000122 -15.04409981 2.8396999836 4.0002999306 1.1844999790 1.6966999769 741.00000000
 1165.5000000 1165.5000000 0.0000000000 0.0000000000 407.66809082 20.973400116 29.593000412 0.2959299982 32.092098236 1.8684999943 55.779899597 70.435203552 -69.55999756 992.60217285 1.7561999559 0.1365000010 2.4530000687 2.3794999123 3.7255001068 -16.54089928 3.2911000252 4.0191998482 1.1780999899 1.6818000078 740.50000000
 1166.0000000 1166.0000000 0.0000000000 0.0000000000 412.43701172 21.440000534 29.957500458 0.2995750010 32.457099915 1.8687000275 57.645401001 71.998802185 -69.55999756 991.41772461 1.7243000269 0.1237000003 2.4245998859 2.3986001015 3.3420000076 -15.99680042 3.7616999149 4.0191001892 1.1719000340 1.6589000225 740.00000000
 1166.5000000 1166.5000000 0.0000000000 0.0000000000 405.18060303 21.629800797 30.088699341 0.3008869886 32.589900970 1.8688999414 59.879398346 77.398002625 -69.30999756 990.46911621 1.6861000061 0.1092000008 2.4679999352 2.4330999851 3.2362999916 -14.02820015 4.2244000435 4.0213999748 1.1686999798 1.6387000084 739.50000000
 1167.0000000 1167.0000000 0.0000000000 0.0000000000 389.66439819 21.859100342 30.238199234 0.3023819923 32.742198944 1.8688000441 62.132801056 80.786903381 -69.30999756 990.03881836 1.6475000381 0.0952000022 2.5662999153 2.4888000488 3.1494998932 -11.71269989 4.6290998459 4.0230998993 1.1670000553 1.6232000589 739.00000000
 1167.5000000 1167.5000000 0.0000000000 0.0000000000 370.74380493 22.311399460 30.523300171 0.3052330017 33.034900665 1.8686000109 64.053596497 82.058898926 -69.30999756 990.39831543 1.6146999598 0.0834999979 2.6972999573 2.5727999210 3.1396999359 -9.962499619 4.9053001404 4.0026001930 1.1670999527 1.6188000441 738.50000000
 1168.0000000 1168.0000000 0.0000000000 0.0000000000 350.87030029 22.341800690 30.542699814 0.3054269850 33.054798126 1.8684999943 65.477096558 82.416900635 -69.19000244 992.60412598 1.5902999640 0.0751999989 2.8501000404 2.6909000874 3.2227001190 -9.351300240 4.9914999008 4.0043001175 1.1668000221 1.6169999838 738.00000000
 1168.5000000 1168.5000000 0.0000000000 0.0000000000 329.82040405 21.280399323 29.839599609 0.2983959913 32.338401794 1.8682999611 66.487701416 80.551101685 -69.19000244 994.17901611 1.5730999708 0.0697000027 3.0320000648 2.8443000317 3.3666999340 -10.00240040 4.8783998489 4.0093998909 1.1653000116 1.6189999580 737.50000000
 1169.0000000 1169.0000000 0.0000000000 0.0000000000 307.25698853 20.177000046 28.893800735 0.2889380157 31.407800674 1.8675999641 67.316596985 78.201896667 -69.19000244 991.73590088 1.5588999987 0.0648000017 3.2546000481 3.0251998901 3.8726000786 -11.37320042 4.6304998398 3.9979999065 1.1646000147 1.6332000494 737.00000000
 1169.5000000 1169.5000000 0.0000000000 0.0000000000 284.69338989 19.691099167 28.488899231 0.2848889828 31.020200729 1.8680000305 68.194198608 72.796501160 -69.19000244 987.07421875 1.5439000130 0.0590000004 3.5125999451 3.2146999836 4.7641000748 -12.35200024 4.3647999763 4.0022001266 1.1634000540 1.6467000246 736.50000000
