# LAS format log file from PETREL
# Project units are specified as depth units
#==================================================================
~Version information
VERS.   2.0:
WRAP.   NO:
#==================================================================
~Well
STRT .FT      295.00000000 :
STOP .FT      3561.0000000 :
STEP .FT     0.50000000 :
NULL .        -999.250000 :
COMP.           : COMPANY
WELL.  GAUNT-WRIGHT UNIT NO. 1-32   : WELL
FLD.            : FIELD
LOC.            : LOCATION
SRVC.           : SERVICE COMPANY
DATE.  2020-07-30 04:07:39   : Log Export Date {yyyy-MM-dd HH:mm:ss}
PROV.           : PROVINCE
UWI.      : UNIQUE WELL ID
API.            : API NUMBER
#==================================================================
~Curve
DEPT .FT                   : DEPTH
DEPT .FT                   : DEPT
AVTX ._                   : AVTX
BVTX ._                   : BVTX
CILD .mS/m                : CILD
CNDL ._                   : CNDL
CNLS ._                   : CNLS
CNPOR ._                  : CNPOR
CNSS ._                   : CNSS
DCAL .in                  : DCAL
DPOR .m3/m3               : DPOR
GR .gAPI                  : GR
LSPD ._                   : LSPD
LTEN ._                   : LTEN
RHOB .g/cm3               : RHOB
RHOC .g/cm3               : RHOC
RILD ._                   : RILD
RILM ._                   : RILM
RLL3 ._                   : RLL3
RxoRt ._                  : RxoRt
SP .mV                    : SP
MCAL .in                  : MCAL
MI ._                     : MI
MN ._                     : MN
SSTVD .FT_                  : SSTVD
~Parameter
#==================================================================
~Ascii
# ...
 2682.5000000 2682.5000000 0.0000000000 0.0000000000 291.03179932 20.959699631 29.581399918 0.2958140075 32.080600739 8.1717996597 13.144900322 80.283500671 -38.29000092 1532.0255127 2.4851999283 0.0328000002 3.4361000061 3.1098001003 5.3260998726 -14.21100044 -64.62709808 8.1785001755 19.534299850 13.063599586 -776.5000000
 2683.0000000 2683.0000000 0.0000000000 0.0000000000 338.53479004 20.654499054 29.315000534 0.2931500077 31.817699432 8.1834001541 15.724800110 75.799301147 -38.52999878 1529.2089844 2.4410998821 0.0582999997 2.9539000988 2.8017001152 5.2294001579 -17.94510078 -65.82330322 8.2017002106 16.002399445 11.579799652 -777.0000000
 2683.5000000 2683.5000000 0.0000000000 0.0000000000 379.11209106 19.754899979 28.541400909 0.2854140103 31.070100784 8.2472000122 17.740800858 77.277999878 -38.29000092 1535.4501953 2.4065999985 0.0992000028 2.6377000809 2.5776998997 3.7341001034 -17.83970070 -67.04550171 8.3715000153 8.1843996048 7.1135997772 -777.5000000
 2684.0000000 2684.0000000 0.0000000000 0.0000000000 405.08779907 19.395599365 28.246200562 0.2824620008 30.790700912 8.4471998215 18.864299774 85.014503479 -38.15999985 1544.8736572 2.3873999119 0.1393000036 2.4686000347 2.4447999001 2.8482000828 -15.08539963 -68.17209625 8.6456003189 3.7941999435 4.1196999550 -778.0000000
 2684.5000000 2684.5000000 0.0000000000 0.0000000000 414.48809814 19.282699585 28.152900696 0.2815290093 30.702899933 8.6963996887 19.387300491 92.539001465 -38.15999985 1556.0666504 2.3784999847 0.1638000011 2.4126000404 2.4077000618 2.6795001030 -13.23040009 -69.21869659 8.7828998566 3.0632998943 3.3468999863 -778.5000000
 2685.0000000 2685.0000000 0.0000000000 0.0000000000 408.34188843 18.229799271 27.221599579 0.2722159922 29.841999054 8.7846002579 19.230800629 96.679100037 -38.04000092 1551.2296143 2.3812000751 0.1719000041 2.4488999844 2.4711999893 2.6612000465 -15.82950020 -70.28130341 8.8360996246 4.0679001808 4.0418000221 -779.0000000
 2685.5000000 2685.5000000 0.0000000000 0.0000000000 391.40930176 15.854999542 24.960100174 0.2496010065 27.833200455 8.6703996658 17.928100586 94.688003540 -37.91999817 1551.6524658 2.4033999443 0.1676999927 2.5548999310 2.6421999931 2.9244000912 -23.30660057 -71.45510101 8.8963003159 10.523599625 10.487600327 -779.5000000
 2686.0000000 2686.0000000 0.0000000000 0.0000000000 369.09188843 11.337699890 20.577100754 0.2057710141 24.015699387 8.5566997528 15.396400452 82.762603760 -38.04000092 1565.3463135 2.4467000961 0.1493999958 2.7093999386 2.9291999340 5.0114002228 -32.03160095 -72.77349854 8.7116003036 28.922100067 30.852100372 -780.0000000
 2686.5000000 2686.5000000 0.0000000000 0.0000000000 341.60751343 7.0892000198 15.325599670 0.1532559991 19.166400909 8.3805999756 12.234900475 63.804698944 -38.15999985 1565.7696533 2.5007998943 0.1151999980 2.9272999763 3.3397998810 9.3136997223 -37.66439819 -74.19730377 8.3353996277 48.239200592 51.902500153 -780.5000000
 2687.0000000 2687.0000000 0.0000000000 0.0000000000 306.89898682 5.1101999283 12.351499557 0.1235149950 16.340200424 8.2405996323 9.3168001175 48.123298645 -38.15999985 1554.6579590 2.5506999493 0.0738999993 3.2583999634 3.8749001026 9.6326999664 -38.17929840 -75.63970184 8.1957998276 49.726699829 49.597801208 -781.0000000
 2687.5000000 2687.5000000 0.0000000000 0.0000000000 266.10229492 4.1273999214 11.025099754 0.1102509946 15.047200203 8.2201995850 7.2192001343 42.200000763 -38.29000092 1539.9794922 2.5866000652 0.0412000008 3.7579998970 4.5198001862 7.8748002052 -34.29069901 -76.99520111 8.1834001541 45.310298920 40.341499329 -781.5000000
 2688.0000000 2688.0000000 0.0000000000 0.0000000000 223.66220093 3.6575000286 10.630800247 0.1063080058 14.658399582 8.2286996841 6.0482997894 42.198699951 -38.29000092 1542.9265137 2.6066000462 0.0242999997 4.4710001945 5.2287001610 8.2035999298 -28.21960068 -78.14309692 8.1851997375 48.816299438 42.911800385 -782.0000000
 2688.5000000 2688.5000000 0.0000000000 0.0000000000 186.14160156 3.5441999435 10.538700104 0.1053870022 14.567399979 8.2384996414 5.7810997963 41.761001587 -38.15999985 1554.8103027 2.6110999584 0.0174000002 5.3723001480 5.9032001495 8.7762002945 -22.21059990 -78.93479919 8.1879997253 55.327999115 52.858898163 -782.5000000
 2689.0000000 2689.0000000 0.0000000000 0.0000000000 160.46159363 3.5994999409 10.583800316 0.1058380008 14.612000465 8.2447004318 6.3333001137 40.048198700 -37.91999817 1550.8750000 2.6017000675 0.0120999999 6.2319998741 6.3880000114 9.1579999924 -18.04439926 -79.20030212 8.1946001053 61.382900238 63.253101349 -783.0000000
 2689.5000000 2689.5000000 0.0000000000 0.0000000000 149.66450500 4.1595001221 11.055199623 0.1105519980 15.076800346 8.2465000153 7.3257999420 38.735298157 -37.91999817 1545.5258789 2.5847001076 0.0054000001 6.6816000938 6.5296998024 9.9146995544 -16.52449989 -78.79920197 8.1906003952 64.378196716 68.380996704 -783.5000000
 2690.0000000 2690.0000000 0.0000000000 0.0000000000 151.75340271 4.9811000824 12.133399963 0.1213340014 16.129400253 8.2455997467 8.2501001358 37.891101837 -38.04000092 1541.9331055 2.5689001083 -0.001000000 6.5896000862 6.2902002335 10.786399841 -16.61759949 -77.70210266 8.1865997314 62.251201630 66.811698914 -784.0000000
 2690.5000000 2690.5000000 0.0000000000 0.0000000000 163.00950623 5.9710001945 13.687000275 0.1368699968 17.618700027 8.2451000214 8.8584995270 37.553901672 -38.15999985 1544.7758789 2.5585000515 -0.005400000 6.1346001625 5.7845997810 9.9043998718 -16.29590034 -76.05509949 8.1844997406 52.123100281 54.675201416 -784.5000000
 2691.0000000 2691.0000000 0.0000000000 0.0000000000 179.56239319 7.1052999496 15.354200363 0.1535419971 19.193399429 8.2455997467 9.2216997147 41.392501831 -38.15999985 1540.8500977 2.5522999763 -0.007300000 5.5690999031 5.1863999367 7.6044998169 -14.08959961 -74.17729950 8.1850004196 36.152099609 35.009601593 -785.0000000
 2691.5000000 2691.5000000 0.0000000000 0.0000000000 197.77330017 8.3162002563 17.022100449 0.1702210009 20.758399963 8.2468004227 9.4975004196 51.462699890 -38.15999985 1532.1564941 2.5476000309 -0.007600000 5.0563001633 4.6195998192 5.2600998878 -10.24090004 -72.46920013 8.1850004196 22.809499741 19.544599533 -785.5000000
 2692.0000000 2692.0000000 0.0000000000 0.0000000000 216.42120361 10.334300041 19.341299057 0.1934129894 22.903999329 8.2473001480 9.8108997345 62.721698761 -38.40999985 1538.2255859 2.5422000885 -0.006600000 4.6206002235 4.1340999603 4.0651001930 -7.327799797 -71.26020050 8.1787996292 16.986799240 12.412500381 -786.0000000
 2692.5000000 2692.5000000 0.0000000000 0.0000000000 237.87879944 13.379799843 22.564500809 0.2256450057 25.757400513 8.2469997406 10.368000031 68.058799744 -38.29000092 1544.8040771 2.5327000618 -0.004200000 4.2038002014 3.7341001034 3.9486000538 -8.457900047 -70.66970062 8.1745004654 18.888799667 12.604000092 -786.5000000
 2693.0000000 2693.0000000 0.0000000000 0.0000000000 265.27099609 15.764599800 24.879800797 0.2487980127 27.763299942 8.2474002838 11.585200310 66.671096802 -38.15999985 1545.5312500 2.5118999481 0.0019000000 3.7697000504 3.4117000103 4.9432997704 -13.33759975 -70.56629944 8.1759996414 26.616100311 18.748300552 -787.0000000
 2693.5000000 2693.5000000 0.0000000000 0.0000000000 296.82348633 17.146200180 26.142499924 0.2614249885 28.872200012 8.2490997314 13.711000443 64.212600708 -38.15999985 1551.8231201 2.4755001068 0.0179999992 3.3689999580 3.1665000916 6.4491000175 -18.07169914 -70.65589905 8.1798000336 28.607999802 22.574100494 -787.5000000
 2694.0000000 2694.0000000 0.0000000000 0.0000000000 323.68301392 17.419500351 26.416099548 0.2641609907 29.115699768 8.2641000748 16.094200134 67.322998047 -38.15999985 1552.2365723 2.4347999096 0.0496999994 3.0894000530 3.0081000328 5.4962000847 -19.26609993 -70.64469910 8.2274999619 17.909099579 15.702599525 -788.0000000
 2694.5000000 2694.5000000 0.0000000000 0.0000000000 335.34689331 16.726800919 25.742399216 0.2574239969 28.518400192 8.3557996750 17.526899338 78.420600891 -38.29000092 1554.5074463 2.4103000164 0.0908000022 2.9820001125 2.9500999451 3.3822999001 -17.48019981 -70.37159729 8.3760004044 7.4029002190 7.1419000626 -788.5000000
