# LAS format log file from PETREL
# Project units are specified as depth units
#==================================================================
~Version information
VERS.   2.0:
WRAP.   NO:
#==================================================================
~Well
STRT .FT      295.00000000 :
STOP .FT      3561.0000000 :
STEP .FT     0.50000000 :
NULL .        -999.250000 :
COMP.           : COMPANY
WELL.  GAUNT-WRIGHT UNIT NO. 1-32   : WELL
FLD.            : FIELD
LOC.            : LOCATION
SRVC.           : SERVICE COMPANY
DATE.  2020-07-30 04:07:39   : Log Export Date {yyyy-MM-dd HH:mm:ss}
PROV.           : PROVINCE
UWI.      : UNIQUE WELL ID
API.            : API NUMBER
#==================================================================
~Curve
DEPT .FT                   : DEPTH
DEPT .FT                   : DEPT
AVTX ._                   : AVTX
BVTX ._                   : BVTX
CILD .mS/m                : CILD
CNDL ._                   : CNDL
CNLS ._                   : CNLS
CNPOR ._                  : CNPOR
CNSS ._                   : CNSS
DCAL .in                  : DCAL
DPOR .m3/m3               : DPOR
GR .gAPI                  : GR
LSPD ._                   : LSPD
LTEN ._                   : LTEN
RHOB .g/cm3               : RHOB
RHOC .g/cm3               : RHOC
RILD ._                   : RILD
RILM ._                   : RILM
RLL3 ._                   : RLL3
RxoRt ._                  : RxoRt
SP .mV                    : SP
MCAL .in                  : MCAL
MI ._                     : MI
MN ._                     : MN
SSTVD .FT_                  : SSTVD
~Parameter
#==================================================================
~Ascii
# ...
 1382.5000000 1382.5000000 0.0000000000 0.0000000000 0.0000000000 0.4483000040 2.3303000927 0.0233030003 6.3249001503 1.8734999895 10.759799957 43.601100922 -69.19000244 1053.7072754 2.5260000229 0.0737999976 100000.00000 40.932701111 17.137500763 338.19461060 -107.0830994 3.9718999863 0.9183999896 1.2022999525 523.50000000
 1383.0000000 1383.0000000 0.0000000000 0.0000000000 0.0000000000 0.1071999967 1.3214000463 0.0132140005 5.3180999756 1.8731000423 12.106800079 39.457901001 -69.19000244 1055.4324951 2.5030000210 0.0619000010 100000.00000 30.131299973 16.986600876 338.24038696 -105.1803970 3.9897999763 0.9248999953 1.1919000149 523.00000000
 1383.5000000 1383.5000000 0.0000000000 0.0000000000 0.0000000000 0.0263999999 0.6086999774 0.0060869996 4.6072998047 1.8724000454 14.360400200 34.322200775 -69.19000244 1056.2839355 2.4644000530 0.0725999996 100000.00000 23.554500580 16.229900360 339.28399658 -103.2882996 3.9883000851 0.9225999713 1.1759999990 522.50000000
 1384.0000000 1384.0000000 0.0000000000 0.0000000000 0.0000000000 0.0143999998 0.3729999959 0.0037300000 4.3722000122 1.8724000454 16.591400146 29.030500412 -69.06999969 1056.2514648 2.4263000488 0.0995000005 100000.00000 20.430700302 15.304400444 341.05429077 -101.3635025 3.9876000881 0.9228000045 1.1496000290 522.00000000
 1384.5000000 1384.5000000 0.0000000000 0.0000000000 0.0000000000 0.0362999998 0.7529000044 0.0075289998 4.7511000633 1.8725999594 18.225000381 24.434400558 -69.06999969 1056.7493896 2.3984000683 0.1296000034 100000.00000 19.445299149 14.381799698 343.26220703 -99.37200165 3.9916999340 0.9322000146 1.1225999594 521.50000000
 1385.0000000 1385.0000000 0.0000000000 0.0000000000 0.0000000000 0.2215999961 1.7818000317 0.0178180002 5.7774000168 1.8724000454 18.798200607 22.768299103 -69.06999969 1059.1799316 2.3886001110 0.1535000056 100000.00000 19.301500320 13.496299744 345.70858765 -97.29699707 3.9809000492 0.9433000088 1.1136000156 521.00000000
 1385.5000000 1385.5000000 0.0000000000 0.0000000000 0.0000000000 0.8422999978 3.3159999847 0.0331600010 7.3102002144 1.8732000589 18.062700272 25.385000229 -69.06999969 1062.0004883 2.4010999203 0.1668999940 100000.00000 17.879699707 12.583999634 348.30160522 -95.13610077 3.9921998978 0.9639999866 1.1486999989 520.50000000
 1386.0000000 1386.0000000 0.0000000000 0.0000000000 0.0000000000 1.7213000059 5.7409000397 0.0574089997 9.7468996048 1.8739000559 16.443599701 33.637298584 -69.44000244 1061.2933350 2.4288001060 0.1671999991 100000.00000 13.682299614 11.868499756 350.99780273 -92.90440369 3.9969000816 0.9995999932 1.2396999598 520.00000000
 1386.5000000 1386.5000000 0.0000000000 0.0000000000 0.0000000000 3.8045001030 10.749500275 0.1074950024 14.775699615 1.8737000227 15.304699898 47.120800018 -69.44000244 1057.9299316 2.4482998848 0.1523000002 100000.00000 8.8076000214 10.803199768 353.72540283 -90.64800262 3.9849998951 1.0268000364 1.3378000259 519.50000000
 1387.0000000 1387.0000000 0.0000000000 0.0000000000 6.4959998131 10.958200455 20.075399399 0.2007539868 23.567699432 1.8734999895 16.840700150 59.029399872 -69.44000244 1054.2083740 2.4219999313 0.1234000027 153.94140625 5.4296998978 10.090999603 103.26090240 -88.45359802 3.9967999458 1.0342999697 1.3968000412 519.00000000
 1387.5000000 1387.5000000 0.0000000000 0.0000000000 48.398399353 20.304599762 29.003999710 0.2900399864 31.514400482 1.8730000257 23.533500671 62.529800415 -69.44000244 1053.1090088 2.3076000214 0.0834999979 20.661800385 3.5260000229 9.7876996994 27.363399506 -86.43509674 4.0174999237 1.0384999514 1.4200999737 518.50000000
 1388.0000000 1388.0000000 0.0000000000 0.0000000000 102.34919739 28.179500580 35.127201080 0.3512720168 37.608798981 1.8729000092 35.774898529 60.146800995 -69.44000244 1055.2196045 2.0982000828 0.0390000008 9.7705001831 2.5051000118 8.8716001511 0.5651999712 -84.69740295 4.0292000771 1.0470000505 1.4025000334 518.00000000
 1388.5000000 1388.5000000 0.0000000000 0.0000000000 149.53289795 32.968898773 38.522399902 0.3852239847 40.059200287 1.8731000423 49.719001770 57.631099701 -69.30999756 1056.5142822 1.8597999811 0.0049000001 6.6875000000 1.9653999805 8.1391000748 -12.16139984 -83.29759979 4.0399999619 1.0483000278 1.3134000301 517.50000000
 1389.0000000 1389.0000000 0.0000000000 0.0000000000 165.22230530 32.876701355 38.464000702 0.3846400082 40.021701813 1.8726999760 60.479400635 56.478298187 -69.30999756 1061.5245361 1.6757999659 -0.006200000 6.0524997711 1.6972999573 8.0541000366 -14.68560028 -82.22290039 4.0124001503 1.0440000296 1.2003999949 517.00000000
 1389.5000000 1389.5000000 0.0000000000 0.0000000000 144.65370178 30.451499939 36.610298157 0.3661029935 38.768100739 1.8724000454 65.752098083 55.757900238 -69.06999969 1065.6866455 1.5856000185 0.0054000001 6.9130997658 1.5946999788 8.0551004410 -8.998700142 -81.39900208 3.9830999374 1.0406999588 1.1565999985 516.50000000
 1390.0000000 1390.0000000 0.0000000000 0.0000000000 120.63099670 28.304000854 35.213699341 0.3521369994 37.681900024 1.8729000092 66.326400757 56.184600830 -69.06999969 1061.5812988 1.5757999420 0.0277999993 8.2896995544 1.5980000496 7.8887000084 -2.382800102 -80.72589874 3.9793999195 1.0434000492 1.1862000227 516.00000000
 1390.5000000 1390.5000000 0.0000000000 0.0000000000 125.27259827 27.219100952 34.395500183 0.3439550102 36.960700989 1.8731000423 65.700401306 59.642200470 -69.06999969 1057.5782471 1.5865000486 0.0423000008 7.9826002121 1.6620999575 8.1813001633 -5.405300140 -80.12069702 3.9730000496 1.0576000214 1.2163000107 515.50000000
 1391.0000000 1391.0000000 0.0000000000 0.0000000000 154.06900024 26.197900772 33.330001831 0.3333000243 35.936401367 1.8739000559 68.050300598 63.739799500 -69.19000244 1057.9342041 1.5463000536 0.0326000005 6.4906001091 1.7445000410 8.8627004623 -15.91339970 -79.54440308 3.9814000130 1.0693999529 1.1898000240 515.00000000
 1391.5000000 1391.5000000 0.0000000000 0.0000000000 177.80679321 24.748699188 32.389701843 0.3238970041 34.979301453 1.8739000559 73.767501831 61.393600464 -69.19000244 1056.4034424 1.4486000538 0.0033000000 5.6241002083 1.8112000227 9.9314002991 -24.10670090 -78.99819946 3.9858999252 1.0721000433 1.1466000080 514.50000000
 1392.0000000 1392.0000000 0.0000000000 0.0000000000 168.40499878 24.681900024 32.352699280 0.3235269785 34.941001892 1.8736000061 79.485000610 52.682201385 -69.19000244 1055.8095703 1.3508000374 -0.025100000 5.9380998611 1.8485000134 11.003600121 -23.79920006 -78.49909973 3.9767000675 1.0781999826 1.1272000074 514.00000000
 1392.5000000 1392.5000000 0.0000000000 0.0000000000 124.84780121 25.504699707 32.811199188 0.3281120062 35.412700653 1.8733999729 82.679496765 45.050300598 -69.19000244 1057.5540771 1.2962000370 -0.039600000 8.0097999573 1.8601000309 11.172300339 -12.51599979 -78.05319977 3.9830999374 1.0894000530 1.1282999516 513.50000000
 1393.0000000 1393.0000000 0.0000000000 0.0000000000 78.200103760 25.038499832 32.548099518 0.3254809976 35.142799377 1.8731000423 83.202598572 40.861198425 -69.44000244 1059.6081543 1.2871999741 -0.040100001 12.787699699 1.8565000296 10.209699631 6.6385002136 -77.64369965 3.9909000397 1.0975999832 1.1387000084 513.00000000
 1393.5000000 1393.5000000 0.0000000000 0.0000000000 54.701301575 23.469699860 31.443500519 0.3144350052 33.992698669 1.8733999729 82.247001648 38.943801880 -69.44000244 1060.2492676 1.3035999537 -0.033500001 18.281099319 1.8479000330 9.2486000061 21.958499908 -77.23760223 3.9844000340 1.1036000252 1.1531000137 512.50000000
 1394.0000000 1394.0000000 0.0000000000 0.0000000000 50.444499969 22.311599731 30.523500443 0.3052349985 33.034999847 1.8736000061 81.092597961 39.655200958 -69.44000244 1059.4840088 1.3233000040 -0.026799999 19.823799133 1.8440999985 9.1892995834 26.103099823 -76.80460358 3.9955000877 1.1045999527 1.1626000404 512.00000000
 1394.5000000 1394.5000000 0.0000000000 0.0000000000 49.463001251 22.486499786 30.635499954 0.3063549995 33.150699615 1.8732999563 80.297096252 40.231998444 -69.44000244 1059.7984619 1.3368999958 -0.023000000 20.217100143 1.8523000479 9.4685001373 27.241100311 -76.33999634 3.9972999096 1.0994000435 1.1642999649 511.50000000
