# LAS format log file from PETREL
# Project units are specified as depth units
#==================================================================
~Version information
VERS.   2.0:
WRAP.   NO:
#==================================================================
~Well
STRT .FT      295.00000000 :
STOP .FT      3561.0000000 :
STEP .FT     0.50000000 :
NULL .        -999.250000 :
COMP.           : COMPANY
WELL.  GAUNT-WRIGHT UNIT NO. 1-32   : WELL
FLD.            : FIELD
LOC.            : LOCATION
SRVC.           : SERVICE COMPANY
DATE.  2020-07-30 04:07:39   : Log Export Date {yyyy-MM-dd HH:mm:ss}
PROV.           : PROVINCE
UWI.      : UNIQUE WELL ID
API.            : API NUMBER
#==================================================================
~Curve
DEPT .FT                   : DEPTH
DEPT .FT                   : DEPT
AVTX ._                   : AVTX
BVTX ._                   : BVTX
CILD .mS/m                : CILD
CNDL ._                   : CNDL
CNLS ._                   : CNLS
CNPOR ._                  : CNPOR
CNSS ._                   : CNSS
DCAL .in                  : DCAL
DPOR .m3/m3               : DPOR
GR .gAPI                  : GR
LSPD ._                   : LSPD
LTEN ._                   : LTEN
RHOB .g/cm3               : RHOB
RHOC .g/cm3               : RHOC
RILD ._                   : RILD
RILM ._                   : RILM
RLL3 ._                   : RLL3
RxoRt ._                  : RxoRt
SP .mV                    : SP
MCAL .in                  : MCAL
MI ._                     : MI
MN ._                     : MN
SSTVD .FT_                  : SSTVD
~Parameter
#==================================================================
~Ascii
# ...
 2032.5000000 2032.5000000 0.0000000000 0.0000000000 424.14248657 21.424999237 29.946800232 0.2994680107 32.446201324 1.9555000067 82.030601501 66.183197021 -68.20999908 1299.6722412 1.3072999716 -0.031199999 2.3577001095 2.2876999378 2.7945001125 -9.342900276 -57.78659821 3.9714000225 1.1409000158 1.5578999519 -126.5000000
 2033.0000000 2033.0000000 0.0000000000 0.0000000000 433.67318726 21.772699356 30.182699203 0.3018269837 32.685501099 1.9551999569 82.131401062 68.905296326 -68.33000183 1300.4979248 1.3056000471 -0.033900000 2.3059000969 2.2857999802 2.8891000748 -10.90929985 -56.78950119 3.9793999195 1.1389000416 1.5498000383 -127.0000000
 2033.5000000 2033.5000000 0.0000000000 0.0000000000 439.74771118 20.765199661 29.413200378 0.2941319942 31.914199829 1.9557000399 82.229103088 77.553901672 -68.33000183 1300.4960938 1.3039000034 -0.036600001 2.2739999294 2.3039999008 2.9149999619 -12.32240009 -56.05569839 3.9869000912 1.1389000416 1.5427000523 -127.5000000
 2034.0000000 2034.0000000 0.0000000000 0.0000000000 441.07571411 19.753200531 28.539899826 0.2853989899 31.068700790 1.9562000036 82.233200073 87.291198730 -68.33000183 1300.3621826 1.3037999868 -0.038400002 2.2671999931 2.3357000351 2.9504001141 -13.35190010 -55.56280136 3.9767999649 1.1394000053 1.5440000296 -128.0000000
 2034.5000000 2034.5000000 0.0000000000 0.0000000000 437.97570801 19.399000168 28.249099731 0.2824909985 30.793300629 1.9560999870 82.157897949 89.973899841 -68.44999695 1299.7624512 1.3050999641 -0.039299998 2.2832000256 2.3729000092 3.0578999519 -13.97309971 -55.27130127 3.9849998951 1.1407999992 1.5615999699 -128.5000000
 2035.0000000 2035.0000000 0.0000000000 0.0000000000 432.33920288 19.795000076 28.574399948 0.2857440114 31.101499557 1.9556000233 82.146797180 85.560997009 -68.44999695 1299.0534668 1.3052999973 -0.040300000 2.3129999638 2.4072999954 3.2046000957 -14.08720016 -55.12870026 3.9788999557 1.1406999826 1.5720000267 -129.0000000
 2035.5000000 2035.5000000 0.0000000000 0.0000000000 426.51950073 20.200500488 28.913999557 0.2891399860 31.427299500 1.9557000399 82.328201294 81.617103577 -68.20999908 1299.8959961 1.3021999598 -0.042199999 2.3445999622 2.4324998856 3.2511000633 -13.60550022 -55.09310150 3.9700999260 1.1370999813 1.5496000051 -129.5000000
 2036.0000000 2036.0000000 0.0000000000 0.0000000000 421.81271362 20.052600861 28.788499832 0.2878850102 31.306400299 1.9566999674 82.642196655 81.637496948 -68.20999908 1300.3878174 1.2968000174 -0.044199999 2.3706998825 2.4447999001 3.0834999084 -12.70450020 -55.15010071 3.9863998890 1.1332000494 1.5074000359 -130.0000000
 2036.5000000 2036.5000000 0.0000000000 0.0000000000 419.22891235 19.720199585 28.512800217 0.2851279974 31.042900085 1.9575999975 82.861701965 83.438400269 -68.33000183 1300.4730225 1.2930999994 -0.044500001 2.3852999210 2.4430000782 2.8935999870 -11.98250008 -55.31409836 3.9821000099 1.1347999573 1.4832999706 -130.5000000
 2037.0000000 2037.0000000 0.0000000000 0.0000000000 420.05261230 19.738500595 28.527900696 0.2852790058 31.057199478 1.9571000338 82.782302856 85.973602295 -68.33000183 1300.4644775 1.2943999767 -0.042100001 2.3807001114 2.4277999401 2.9328999519 -12.01910019 -55.61899948 3.9841001034 1.1397000551 1.4997999668 -131.0000000
 2037.5000000 2037.5000000 0.0000000000 0.0000000000 424.49371338 20.410499573 29.097200394 0.2909719944 31.604900360 1.9559999704 82.380798340 87.942901611 -68.33000183 1300.4437256 1.3013000488 -0.037700001 2.3557000160 2.4028999805 3.1359000206 -12.67420006 -56.10850143 3.9949998856 1.1420999765 1.5353000164 -131.5000000
 2038.0000000 2038.0000000 0.0000000000 0.0000000000 431.44281006 22.011499405 30.334699631 0.3033469915 32.840900421 1.9564000368 81.810897827 87.848197937 -68.08000183 1300.6689453 1.3109999895 -0.032499999 2.3178000450 2.3778998852 3.2093999386 -13.22570038 -56.82910156 3.9846999645 1.1434999704 1.5547000170 -132.0000000
 2038.5000000 2038.5000000 0.0000000000 0.0000000000 437.76278687 23.525400162 31.500400543 0.3150039911 34.052200317 1.9565999508 81.275299072 87.393997192 -68.08000183 1300.3452148 1.3201999664 -0.027799999 2.2843000889 2.3689000607 3.0660998821 -13.08399963 -57.81859970 3.9830000401 1.1452000141 1.5520999432 -132.5000000
 2039.0000000 2039.0000000 0.0000000000 0.0000000000 437.18011475 23.160499573 31.138399124 0.3113839924 33.673698425 1.9569000006 80.904899597 85.891296387 -68.08000183 1299.9525146 1.3265000582 -0.024499999 2.2874000072 2.3970999718 2.8317999840 -12.37730026 -59.09080124 3.9886000156 1.1447999477 1.5385999680 -133.0000000
 2039.5000000 2039.5000000 0.0000000000 0.0000000000 423.86990356 20.094999313 28.824199677 0.2882419825 31.340799332 1.9565999508 80.670402527 84.380599976 -68.08000183 1300.1572266 1.3305000067 -0.022900000 2.3592000008 2.4842000008 2.6431999207 -12.52980042 -60.62480164 3.9784998894 1.1452000141 1.5349999666 -133.5000000
 2040.0000000 2040.0000000 0.0000000000 0.0000000000 398.26721191 16.485099792 25.521600723 0.2552160025 28.324199677 1.9560999870 80.346496582 82.317802429 -68.33000183 1300.6240234 1.3360999823 -0.021600001 2.5109000206 2.6496999264 2.7174999714 -15.97920036 -62.37070084 3.9832999706 1.1513999701 1.5728000402 -134.0000000
 2040.5000000 2040.5000000 0.0000000000 0.0000000000 366.28289795 12.524999619 21.755300522 0.2175530046 25.053199768 1.9560999870 79.696701050 74.280799866 -68.33000183 1300.6058350 1.3472000360 -0.018400000 2.7300999165 2.9059000015 3.3373999596 -23.62680054 -64.26940155 3.9790000916 1.1644999981 1.6706999540 -134.5000000
 2041.0000000 2041.0000000 0.0000000000 0.0000000000 334.85470581 9.0720996857 18.083799362 0.1808379889 21.747800827 1.9565999508 78.776000977 60.873001099 -68.33000183 1300.5555420 1.3629000187 -0.013200000 2.9863998890 3.2488000393 5.2279000282 -33.15570068 -66.26860046 3.9758000374 1.1797000170 1.8052999973 -135.0000000
 2041.5000000 2041.5000000 0.0000000000 0.0000000000 308.24639893 7.6472997665 16.195600510 0.1619560122 19.983699799 1.9570000172 77.918601990 47.302299500 -68.33000183 1300.7801514 1.3775999546 -0.008800000 3.2441999912 3.6414999962 9.0500001907 -41.08340073 -68.32569885 3.9793999195 1.1892000437 1.9172999859 -135.5000000
 2042.0000000 2042.0000000 0.0000000000 0.0000000000 286.05349731 7.1140999794 15.369899750 0.1536989957 19.208099365 1.9563000202 77.393203735 37.869598389 -68.33000183 1300.6553955 1.3866000175 -0.007000000 3.4958000183 4.0033001900 13.486800194 -44.78540039 -70.39910126 3.9735000134 1.1941000223 1.9797999859 -136.0000000
 2042.5000000 2042.5000000 0.0000000000 0.0000000000 266.51449585 6.9498000145 15.082799911 0.1508280039 18.937999725 1.9558000565 77.213401794 36.399600983 -68.44999695 1300.3619385 1.3896000385 -0.007100000 3.7520999908 4.2325000763 13.526900291 -43.15579987 -72.44969940 3.9807000160 1.1959999800 2.0013000965 -136.5000000
 2043.0000000 2043.0000000 0.0000000000 0.0000000000 250.62089539 7.0125999451 15.190600395 0.1519059986 19.039400101 1.9560999870 77.270797729 39.671699524 -68.44999695 1300.1112061 1.3887000084 -0.007400000 3.9900999069 4.2677001953 9.8743000031 -37.00680161 -74.45780182 3.9848001003 1.1942000389 1.9917000532 -137.0000000
 2043.5000000 2043.5000000 0.0000000000 0.0000000000 241.89469910 7.4114999771 15.870599747 0.1587059945 19.678499222 1.9565000534 77.457199097 44.064701080 -68.20999908 1300.0812988 1.3854999542 -0.007800000 4.1339998245 4.1276998520 6.8537998199 -29.10619926 -76.43479919 3.9744000435 1.1931999922 1.9699000120 -137.5000000
 2044.0000000 2044.0000000 0.0000000000 0.0000000000 244.45089722 8.3599996567 17.083099365 0.1708309948 20.815399170 1.9566999674 77.628097534 53.550998688 -68.20999908 1301.0468750 1.3825999498 -0.008600000 4.0907998085 3.8819999695 5.6968998909 -23.29089928 -78.40969849 3.9749999046 1.1957999468 1.9611999989 -138.0000000
 2044.5000000 2044.5000000 0.0000000000 0.0000000000 260.84579468 9.1469001770 18.166400909 0.1816640049 21.824300766 1.9572000504 77.629798889 66.787399292 -68.20999908 1301.6081543 1.3825000525 -0.008600000 3.8336999416 3.5957999229 6.0352997780 -21.93129921 -80.39360046 3.9756999016 1.1990000010 1.9704999924 -138.5000000
