# LAS format log file from PETREL
# Project units are specified as depth units
#==================================================================
~Version information
VERS.   2.0:
WRAP.   NO:
#==================================================================
~Well
STRT .FT      295.00000000 :
STOP .FT      3561.0000000 :
STEP .FT     0.50000000 :
NULL .        -999.250000 :
COMP.           : COMPANY
WELL.  GAUNT-WRIGHT UNIT NO. 1-32   : WELL
FLD.            : FIELD
LOC.            : LOCATION
SRVC.           : SERVICE COMPANY
DATE.  2020-07-30 04:07:39   : Log Export Date {yyyy-MM-dd HH:mm:ss}
PROV.           : PROVINCE
UWI.      : UNIQUE WELL ID
API.            : API NUMBER
#==================================================================
~Curve
DEPT .FT                   : DEPTH
DEPT .FT                   : DEPT
AVTX ._                   : AVTX
BVTX ._                   : BVTX
CILD .mS/m                : CILD
CNDL ._                   : CNDL
CNLS ._                   : CNLS
CNPOR ._                  : CNPOR
CNSS ._                   : CNSS
DCAL .in                  : DCAL
DPOR .m3/m3               : DPOR
GR .gAPI                  : GR
LSPD ._                   : LSPD
LTEN ._                   : LTEN
RHOB .g/cm3               : RHOB
RHOC .g/cm3               : RHOC
RILD ._                   : RILD
RILM ._                   : RILM
RLL3 ._                   : RLL3
RxoRt ._                  : RxoRt
SP .mV                    : SP
MCAL .in                  : MCAL
MI ._                     : MI
MN ._                     : MN
SSTVD .FT_                  : SSTVD
~Parameter
#==================================================================
~Ascii
# ...
 3545.0000000 3545.0000000 0.0000000000 0.0000000000 28.001100540  -999.250000 12.370499611  -999.250000  -999.250000  -999.250000  -999.250000 31.495300293 -37.29999924 1823.0350342  -999.250000  -999.250000 35.712898254 34.296901703 29.130599976 5.4531002045 -104.6063004 -110.0245972 0.6596999764 1.1883000135 -1639.000000
 3545.5000000 3545.5000000 0.0000000000 0.0000000000 28.479999542  -999.250000 11.614500046  -999.250000  -999.250000  -999.250000  -999.250000 32.433200836 -37.29999924 1811.2911377  -999.250000  -999.250000 35.112400055 34.417301178 29.044599533 0.0000000000 -104.5780029 -130.1436005 0.1120999977 0.2022999972 -1639.500000
 3546.0000000 3546.0000000 0.0000000000 0.0000000000 29.309499741  -999.250000 10.878499985  -999.250000  -999.250000  -999.250000  -999.250000 31.816900253 -37.79000092 1776.4571533  -999.250000  -999.250000 34.118598938 34.323600769 28.976499557 0.0000000000 -104.5691986 -131.3376007 0.0078999996 0.0142000001 -1640.000000
 3546.5000000 3546.5000000 0.0000000000 0.0000000000 29.887899399  -999.250000 10.430899620  -999.250000  -999.250000  -999.250000  -999.250000 30.846700668 -37.54999924 1763.9448242  -999.250000  -999.250000 33.458301544 34.402599335 28.938800812 0.0000000000 -104.6054001  -999.250000 0.0002000000 0.0003000000 -1640.500000
 3547.0000000 3547.0000000 0.0000000000 0.0000000000 30.035699844  -999.250000 10.447299957  -999.250000  -999.250000  -999.250000  -999.250000 31.012899399 -37.66999817 1802.6750488  -999.250000  -999.250000 33.293701172 34.838199615 28.909799576 0.0000000000 -104.7008972  -999.250000  -999.250000  -999.250000 -1641.000000
 3547.5000000 3547.5000000 0.0000000000 0.0000000000 29.997299194  -999.250000 10.935099602  -999.250000  -999.250000  -999.250000  -999.250000 33.097198486 -37.54999924 1790.7707520  -999.250000  -999.250000 33.336299896 35.408199310 28.846099854 0.0000000000 -104.8520966  -999.250000  -999.250000  -999.250000 -1641.500000
 3548.0000000 3548.0000000 0.0000000000 0.0000000000 29.981199265  -999.250000 11.911100388  -999.250000  -999.250000  -999.250000  -999.250000 35.196800232 -37.54999924 1790.3745117  -999.250000  -999.250000 33.354198456 35.486198425 27.555099487 0.0000000000 -105.0417023  -999.250000  -999.250000  -999.250000 -1642.000000
 3548.5000000 3548.5000000 0.0000000000 0.0000000000 30.144899368  -999.250000 13.442700386  -999.250000  -999.250000  -999.250000  -999.250000 34.870700836 -37.43000031 1901.4266357  -999.250000  -999.250000 33.173099518 34.450199127 18.241899490 0.0000000000 -105.2540970  -999.250000  -999.250000  -999.250000 -1642.500000
 3549.0000000 3549.0000000 0.0000000000 0.0000000000 30.854200363  -999.250000 15.301600456  -999.250000  -999.250000  -999.250000  -999.250000 33.446601868 -37.66999817 1960.2274170  -999.250000  -999.250000 32.410499573 32.300800323 4.4380002022 0.0000000000 -105.4866028  -999.250000  -999.250000  -999.250000 -1643.000000
 3549.5000000 3549.5000000 0.0000000000 0.0000000000 32.509899139  -999.250000 16.613700867  -999.250000  -999.250000  -999.250000  -999.250000 33.121601105 -37.43000031 1902.2312012  -999.250000  -999.250000 30.759899139 29.695699692 0.2509999871 0.0000000000 -105.7461014  -999.250000  -999.250000  -999.250000 -1643.500000
 3550.0000000 3550.0000000 0.0000000000 0.0000000000 34.700000763  -999.250000 16.578100204  -999.250000  -999.250000  -999.250000  -999.250000 32.937801361 -37.54999924 1826.3032227  -999.250000  -999.250000 28.818399429 27.346200943 0.0099999998 0.0000000000 -106.0363998  -999.250000  -999.250000  -999.250000 -1644.000000
 3550.5000000 3550.5000000 0.0000000000 0.0000000000 36.324001312  -999.250000 15.433300018  -999.250000  -999.250000  -999.250000  -999.250000 32.260799408 -37.54999924 1802.5882568  -999.250000  -999.250000 27.530000687 25.603700638  -999.250000 0.0000000000 -106.3508987  -999.250000  -999.250000  -999.250000 -1644.500000
 3551.0000000 3551.0000000 0.0000000000 0.0000000000 36.996799469  -999.250000 14.071000099  -999.250000  -999.250000  -999.250000  -999.250000 32.497600555 -37.54999924 1818.9821777  -999.250000  -999.250000 27.029300690 24.489700317  -999.250000 0.0000000000 -106.6729965  -999.250000  -999.250000  -999.250000 -1645.000000
 3551.5000000 3551.5000000 0.0000000000 0.0000000000 37.153900146  -999.250000 13.196299553  -999.250000  -999.250000  -999.250000  -999.250000 34.467601776 -37.43000031 1816.1437988  -999.250000  -999.250000 26.915100098 23.867200851  -999.250000 0.0000000000 -106.9782028  -999.250000  -999.250000  -999.250000 -1645.500000
 3552.0000000 3552.0000000 0.0000000000 0.0000000000 37.135501862  -999.250000 13.077500343  -999.250000  -999.250000  -999.250000  -999.250000 36.672698975 -37.54999924 1805.1307373  -999.250000  -999.250000 26.928400040 23.564300537  -999.250000 0.0000000000 -107.2342987  -999.250000  -999.250000  -999.250000 -1646.000000
 3552.5000000 3552.5000000 0.0000000000 0.0000000000 34.883598328  -999.250000 13.680999756  -999.250000  -999.250000  -999.250000  -999.250000 36.817798615 -37.54999924 1784.7529297  -999.250000  -999.250000 28.666700363 23.433900833  -999.250000 0.0000000000 -107.4063034  -999.250000  -999.250000  -999.250000 -1646.500000
 3553.0000000 3553.0000000 0.0000000000 0.0000000000 32.082599640  -999.250000 14.714200020  -999.250000  -999.250000  -999.250000  -999.250000 35.314800262 -37.54999924 1733.6916504  -999.250000  -999.250000 31.169599533 23.374399185  -999.250000 0.0000000000 -107.4745026  -999.250000  -999.250000  -999.250000 -1647.000000
 3553.5000000 3553.5000000 0.0000000000 0.0000000000 30.771099091  -999.250000 15.652899742  -999.250000  -999.250000  -999.250000  -999.250000 33.821498871 -37.43000031 1783.5548096  -999.250000  -999.250000 32.498100281 23.329200745  -999.250000 0.0000000000 -107.4570007  -999.250000  -999.250000  -999.250000 -1647.500000
 3554.0000000 3554.0000000 0.0000000000 0.0000000000 29.646900177  -999.250000 16.182300568  -999.250000  -999.250000  -999.250000  -999.250000 32.609001160 -37.43000031 1928.3763428  -999.250000  -999.250000 33.730300903 23.277399063  -999.250000 0.0000000000 -107.4151993  -999.250000  -999.250000  -999.250000 -1648.000000
 3554.5000000 3554.5000000 0.0000000000 0.0000000000 29.054399490  -999.250000 16.561899185  -999.250000  -999.250000  -999.250000  -999.250000 31.678899765 -37.43000031 1915.1680908  -999.250000  -999.250000 34.418098450 23.220600128  -999.250000 0.0000000000 -107.4272995  -999.250000  -999.250000  -999.250000 -1648.500000
 3555.0000000 3555.0000000 0.0000000000 0.0000000000 28.110099792  -999.250000 17.075399399  -999.250000  -999.250000  -999.250000  -999.250000  -999.250000 -37.54999924 1778.1339111  -999.250000  -999.250000 35.574401855 23.175399780  -999.250000 0.0000000000 -107.5434036  -999.250000  -999.250000  -999.250000 -1649.000000
 3555.5000000 3555.5000000 0.0000000000 0.0000000000 23.592399597  -999.250000 17.589199066  -999.250000  -999.250000  -999.250000  -999.250000  -999.250000 -37.54999924 1623.0235596  -999.250000  -999.250000 42.386600494 23.166000366  -999.250000 0.0000000000 -107.7589035  -999.250000  -999.250000  -999.250000 -1649.500000
 3556.0000000 3556.0000000 0.0000000000 0.0000000000 10.545599937  -999.250000 17.808399200  -999.250000  -999.250000  -999.250000  -999.250000  -999.250000 -37.79000092 1473.0100098  -999.250000  -999.250000 94.826698303 23.255599976  -999.250000 0.0000000000 -108.0276031  -999.250000  -999.250000  -999.250000 -1650.000000
 3556.5000000 3556.5000000 0.0000000000 0.0000000000 0.0000000000  -999.250000 17.437200546  -999.250000  -999.250000  -999.250000  -999.250000  -999.250000 -37.66999817 1318.6484375  -999.250000  -999.250000 100000.00000 23.614299774  -999.250000 0.0000000000 -108.3021011  -999.250000  -999.250000  -999.250000 -1650.500000
 3557.0000000 3557.0000000 0.0000000000 0.0000000000 0.0000000000  -999.250000 16.358200073  -999.250000  -999.250000  -999.250000  -999.250000  -999.250000 -37.66999817 1201.3062744  -999.250000  -999.250000 100000.00000 24.668199539  -999.250000 0.0000000000 -108.5622025  -999.250000  -999.250000  -999.250000 -1651.000000
