# LAS format log file from PETREL
# Project units are specified as depth units
#==================================================================
~Version information
VERS.   2.0:
WRAP.   NO:
#==================================================================
~Well
STRT .FT      295.00000000 :
STOP .FT      3561.0000000 :
STEP .FT     0.50000000 :
NULL .        -999.250000 :
COMP.           : COMPANY
WELL.  GAUNT-WRIGHT UNIT NO. 1-32   : WELL
FLD.            : FIELD
LOC.            : LOCATION
SRVC.           : SERVICE COMPANY
DATE.  2020-07-30 04:07:39   : Log Export Date {yyyy-MM-dd HH:mm:ss}
PROV.           : PROVINCE
UWI.      : UNIQUE WELL ID
API.            : API NUMBER
#==================================================================
~Curve
DEPT .FT                   : DEPTH
DEPT .FT                   : DEPT
AVTX ._                   : AVTX
BVTX ._                   : BVTX
CILD .mS/m                : CILD
CNDL ._                   : CNDL
CNLS ._                   : CNLS
CNPOR ._                  : CNPOR
CNSS ._                   : CNSS
DCAL .in                  : DCAL
DPOR .m3/m3               : DPOR
GR .gAPI                  : GR
LSPD ._                   : LSPD
LTEN ._                   : LTEN
RHOB .g/cm3               : RHOB
RHOC .g/cm3               : RHOC
RILD ._                   : RILD
RILM ._                   : RILM
RLL3 ._                   : RLL3
RxoRt ._                  : RxoRt
SP .mV                    : SP
MCAL .in                  : MCAL
MI ._                     : MI
MN ._                     : MN
SSTVD .FT_                  : SSTVD
~Parameter
#==================================================================
~Ascii
# ...
 1595.0000000 1595.0000000 0.0000000000 0.0000000000 299.05789185 36.313201904 40.568199158 0.4056819975 41.366600037 1.9122999907 88.923301697 42.204200745 -69.68000031 1152.3009033 1.1893999577 -0.079999998 3.3438000679 1.1736999750 10.665900230 -50.52730179 -74.28679657 3.9797999859 1.0776000023 1.1155999899 311.00000000
 1595.5000000 1595.5000000 0.0000000000 0.0000000000 285.73739624 35.559700012 40.102798462 0.4010279775 41.065898895 1.9127000570 88.959701538 44.441001892 -69.55999756 1149.6550293 1.1887999773 -0.081799999 3.4997000694 1.2996000051 9.1287002563 -44.99229813 -74.55249786 3.9865999222 1.0803999901 1.1186000109 310.50000000
 1596.0000000 1596.0000000 0.0000000000 0.0000000000 244.19009399 32.614398956 38.292900085 0.3829289973 39.911399841 1.9134000540 88.995597839 47.630401611 -69.55999756 1146.2864990 1.1881999969 -0.083499998 4.0952000618 1.4802000523 8.9551000595 -37.25279999 -74.69860077 3.9793999195 1.0838999748 1.1275999546 310.00000000
 1596.5000000 1596.5000000 0.0000000000 0.0000000000 192.87969971 30.498600006 36.641899109 0.3664189875 38.791000366 1.9128999710 89.092102051 51.803699493 -69.44000244 1147.3369141 1.1864999533 -0.085699998 5.1845998764 1.7077000141 9.5256996155 -29.26969910 -74.70909882 3.9851000309 1.0825999975 1.1397999525 309.50000000
 1597.0000000 1597.0000000 0.0000000000 0.0000000000 151.41119385 28.747200012 35.513198853 0.3551319838 37.929000854 1.9125000238 89.167900085 56.158500671 -69.44000244 1150.1258545 1.1851999760 -0.086999997 6.6044998169 1.9602999687 10.613400459 -23.37829971 -74.58979797 3.9790999889 1.0802999735 1.1481000185 309.00000000
 1597.5000000 1597.5000000 0.0000000000 0.0000000000 124.63529968 27.283700943 34.450199127 0.3445020020 37.010898590 1.9128999710 89.148200989 59.364898682 -69.19000244 1153.0025635 1.1856000423 -0.085900001 8.0234003067 2.2105000019 12.099100113 -20.69980049 -74.37500000 3.9767000675 1.0779000521 1.1454999447 308.50000000
 1598.0000000 1598.0000000 0.0000000000 0.0000000000 105.22229767 26.443099976 33.592700958 0.3359270096 36.196201324 1.9134999514 89.046897888 58.102298737 -69.19000244 1158.1945801 1.1872999668 -0.082500003 9.5037002563 2.4526998997 14.303700447 -19.21089935 -74.11949921 3.9886999130 1.0755000114 1.1382999420 308.00000000
 1598.5000000 1598.5000000 0.0000000000 0.0000000000 83.976600647 25.326299667 32.707599640 0.3270759881 35.306800842 1.9131000042 88.892700195 50.021999359 -69.30999756 1155.1392822 1.1899000406 -0.077799998 11.908100128 2.7249000072 17.483299255 -14.42169952 -73.87550354 3.9842000008 1.0745999813 1.1370999813 307.50000000
 1599.0000000 1599.0000000 0.0000000000 0.0000000000 59.695899963 22.706899643 30.782800674 0.3078280091 33.303298950 1.9127999544 88.670799255 41.799098969 -69.30999756 1148.7225342 1.1936999559 -0.072700001 16.751600266 3.1063001156 19.404499054 -2.903800011 -73.66619873 3.9839999676 1.0737999678 1.1477999687 307.00000000
 1599.5000000 1599.5000000 0.0000000000 0.0000000000 41.731399536 19.062900543 27.968599319 0.2796860039 30.530500412 1.9126000404 88.322303772 39.459999084 -69.30999756 1152.8778076 1.1996999979 -0.068000004 23.962699890 3.7070000172 18.065900803 11.864199638 -73.47630310 3.9932999611 1.0716999769 1.1864999533 306.50000000
 1600.0000000 1600.0000000 0.0000000000 0.0000000000 39.857700348 16.345600128 25.396200180 0.2539620101 28.214300156 1.9125000238 87.728599548 38.648399353 -69.44000244 1156.5664063 1.2098000050 -0.063800000 25.089300156 4.6619000435 15.232799530 16.415899277 -73.26599884 3.9869999886 1.0780999660 1.2935999632 306.00000000
 1600.5000000 1600.5000000 0.0000000000 0.0000000000 52.314098358 14.367600441 23.578800201 0.2357880026 26.635599136 1.9125000238 86.732498169 37.951301575 -69.44000244 1153.0858154 1.2268999815 -0.059000000 19.115299225 6.0843000412 13.129799843 8.9534997940 -73.00229645 3.9848001003 1.1130000353 1.4888000488 305.50000000
 1601.0000000 1601.0000000 0.0000000000 0.0000000000 67.562202454 12.987500191 22.175199509 0.2217519879 25.419200897 1.9127999544 85.272697449 41.875801086 -69.44000244 1154.1708984 1.2517999411 -0.051800001 14.801199913 7.8657999039 12.064599991 0.5444999933 -72.68260193 3.9890999794 1.1663999557 1.7251000404 305.00000000
 1601.5000000 1601.5000000 0.0000000000 0.0000000000 74.983901978 11.474100113 20.746400833 0.2074640095 24.165899277 1.9132000208 83.507202148 45.545799255 -69.44000244 1156.8640137 1.2819999456 -0.041900001 13.336199760 9.3673000336 12.321100235 -4.742099762 -72.33640289 3.9790999889 1.2184000015 1.9529999495 304.50000000
 1602.0000000 1602.0000000 0.0000000000 0.0000000000 71.103797913 10.575699806 19.607900620 0.1960790008 23.146099091 1.9129999876 81.768302917 42.241600037 -69.30999756 1158.6562500 1.3118000031 -0.030800000 14.063899994 9.7649002075 14.726200104 -6.028399944 -72.00399780 3.9855000973 1.2651000023 2.1540000439 304.00000000
 1602.5000000 1602.5000000 0.0000000000 0.0000000000 60.698898315 10.143300056 19.142799377 0.1914279908 22.722900391 1.9125000238 80.400802612 35.862598419 -69.30999756 1159.0015869 1.3351000547 -0.021800000 16.474800110 9.1001996994 18.109300613 -3.246500015 -71.71279907 3.9807000160 1.2877999544 2.2918999195 303.50000000
 1603.0000000 1603.0000000 0.0000000000 0.0000000000 53.490200043 9.9516000748 18.952800751 0.1895280033 22.549100876 1.9118000269 79.600097656 34.486301422 -69.30999756 1154.6348877 1.3487999439 -0.017100001 18.694999695 8.0937995911 20.387199402 0.3037999868 -71.46790314 3.9790000916 1.2778999805 2.3243999481 303.00000000
 1603.5000000 1603.5000000 0.0000000000 0.0000000000 55.193199158 9.3358001709 18.361900330 0.1836190075 22.005100250 1.9119999409 79.311096191 38.309700012 -69.55999756 1149.3679199 1.3538000584 -0.015900001 18.118200302 7.2593002319 19.080200195 0.5608000159 -71.26210022 3.9932999611 1.2467000484 2.2228999138 302.50000000
 1604.0000000 1604.0000000 0.0000000000 0.0000000000 62.429698944 8.5595998764 17.380300522 0.1738030016 21.093099594 1.9129999876 79.281700134 41.943500519 -69.55999756 1151.1666260 1.3543000221 -0.015500000 16.017999649 6.7649002075 14.298000336 -0.824500024 -71.09030151 3.9830000401 1.2165000439 2.0592000484 302.00000000
 1604.5000000 1604.5000000 0.0000000000 0.0000000000 69.801002502 7.9440999031 16.556499481 0.1655649990 20.322200775 1.9127000570 79.252403259 45.299800873 -69.55999756 1149.9055176 1.3547999859 -0.014200000 14.326399803 6.6269998550 10.810799599 -2.564599991 -70.95610046 3.9816999435 1.2302999496 2.0422000885 301.50000000
 1605.0000000 1605.0000000 0.0000000000 0.0000000000 76.662101746 7.0096998215 15.185500145 0.1518550068 19.034700394 1.9125000238 79.110900879 48.516899109 -69.55999756 1152.5278320 1.3572000265 -0.012100000 13.044199944 6.8250999451 12.571200371 -7.343699932 -70.86720276 3.9867000580 1.2740999460 2.1984999180 301.00000000
 1605.5000000 1605.5000000 0.0000000000 0.0000000000 83.359703064 5.0720000267 12.286499977 0.1228649989 16.277500153 1.9129999876 78.915397644 47.479099274 -69.44000244 1157.3879395 1.3604999781 -0.010700000 11.996199608 7.3333001137 15.903499603 -16.22270012 -70.82569885 3.9746999741 1.2914999723 2.3006999493 300.50000000
 1606.0000000 1606.0000000 0.0000000000 0.0000000000 88.900596619 2.7736001015 8.7966003418 0.0879660025 12.829799652 1.9138000011 78.764999390 43.459999084 -69.44000244 1159.0927734 1.3631000519 -0.010900000 11.248499870 8.1174001694 17.343700409 -27.69890022 -70.82230377 3.9804000854 1.2965999842 2.3278000355 300.00000000
 1606.5000000 1606.5000000 0.0000000000 0.0000000000 92.411300659 1.7638000250 5.8696999550 0.0586970001 9.8770999908 1.9139000177 78.644996643 40.339500427 -69.44000244 1160.9066162 1.3652000427 -0.011900000 10.821200371 9.1283998489 22.981899261 -39.46049881 -70.83760071 3.9842998981 1.3135999441 2.4163999557 299.50000000
 1607.0000000 1607.0000000 0.0000000000 0.0000000000 91.900199890 1.0465999842 4.1519999504 0.0415199995 8.1478004456 1.9133000374 78.467102051 36.895500183 -69.68000031 1160.4218750 1.3681999445 -0.012300000 10.881400108 10.305600166 37.224700928 -48.03689957 -70.84619904 3.9730000496 1.3264000416 2.5357000828 299.00000000
