# LAS format log file from PETREL
# Project units are specified as depth units
#==================================================================
~Version information
VERS.   2.0:
WRAP.   NO:
#==================================================================
~Well
STRT .FT      295.00000000 :
STOP .FT      3561.0000000 :
STEP .FT     0.50000000 :
NULL .        -999.250000 :
COMP.           : COMPANY
WELL.  GAUNT-WRIGHT UNIT NO. 1-32   : WELL
FLD.            : FIELD
LOC.            : LOCATION
SRVC.           : SERVICE COMPANY
DATE.  2020-07-30 04:07:39   : Log Export Date {yyyy-MM-dd HH:mm:ss}
PROV.           : PROVINCE
UWI.      : UNIQUE WELL ID
API.            : API NUMBER
#==================================================================
~Curve
DEPT .FT                   : DEPTH
DEPT .FT                   : DEPT
AVTX ._                   : AVTX
BVTX ._                   : BVTX
CILD .mS/m                : CILD
CNDL ._                   : CNDL
CNLS ._                   : CNLS
CNPOR ._                  : CNPOR
CNSS ._                   : CNSS
DCAL .in                  : DCAL
DPOR .m3/m3               : DPOR
GR .gAPI                  : GR
LSPD ._                   : LSPD
LTEN ._                   : LTEN
RHOB .g/cm3               : RHOB
RHOC .g/cm3               : RHOC
RILD ._                   : RILD
RILM ._                   : RILM
RLL3 ._                   : RLL3
RxoRt ._                  : RxoRt
SP .mV                    : SP
MCAL .in                  : MCAL
MI ._                     : MI
MN ._                     : MN
SSTVD .FT_                  : SSTVD
~Parameter
#==================================================================
~Ascii
 295.00000000 295.00000000 0.0000000000 0.0000000000 51.313899994 24.822500229 32.430198669 0.3243019879 35.021198273 1.8666000366 65.502700806 48.464099884 -42.34999847 669.57061768 1.5899000168 0.0505999997 19.487899780 100000.00000 0.7437000275 125.14459991 174.19590759 3.9760000706 0.9735000134 0.4700999856 1611.0000000
 295.50000000 295.50000000 0.0000000000 0.0000000000 52.767501831 26.816200256 34.017101288 0.3401710093 36.606399536 1.8669999838 65.597198486 46.941101074 -42.34999847 669.15338135 1.5882999897 0.0493000001 18.951099396 100000.00000 0.7412999868 124.16030121 174.13020325 3.9739000797 0.9753999710 0.4724999964 1610.5000000
 296.00000000 296.00000000 0.0000000000 0.0000000000 54.166599274 29.334800720 35.894798279 0.3589479923 38.231998444 1.8673000336 65.782302856 46.959800720 -42.22999954 668.87762451 1.5851000547 0.0474000014 18.461599350 100000.00000 0.7386999726 123.23750305 174.04269409 3.9774999619 0.9775999784 0.4758999944 1610.0000000
 296.50000000 296.50000000 0.0000000000 0.0000000000 55.442100525 31.392999649 37.322399139 0.3732239902 39.268100739 1.8666000366 66.131797791 47.462001801 -42.22999954 669.79040527 1.5791000128 0.0447999984 18.036800385 100000.00000 0.7371000051 122.40809631 173.95919800 3.9779000282 0.9799000025 0.4824000001 1609.5000000
 297.00000000 297.00000000 0.0000000000 0.0000000000 56.611099243 32.237300873 38.027999878 0.3802799881 39.738998413 1.8669999838 66.592597961 47.488800049 -42.47000122 673.18719482 1.5713000298 0.0419999994 17.664400101 100000.00000 0.7364000082 121.65000153 173.89120483 3.9744999409 0.9817000031 0.4898999929 1609.0000000
 297.50000000 297.50000000 0.0000000000 0.0000000000 57.657699585 31.745899200 37.629501343 0.3762950003 39.475498199 1.8672000170 67.009399414 47.795799255 -42.47000122 677.03332520 1.5641000271 0.0395999998 17.343799591 100000.00000 0.7361999750 120.97810364 173.83990479 3.9811000824 0.9832999706 0.4939000010 1608.5000000
 298.00000000 298.00000000 0.0000000000 0.0000000000 58.589401245 29.505500793 36.003501892 0.3600350320 38.316001892 1.8667000532 67.241401672 49.457199097 -42.09999847 677.44110107 1.5601999760 0.0388999991 17.067899704 100000.00000 0.7358999848 120.40070343 173.80220032 3.9913001060 0.9847000241 0.4948000014 1608.0000000
 298.50000000 298.50000000 0.0000000000 0.0000000000 59.456001282 26.775299072 33.973598480 0.3397359848 36.564899445 1.8667999506 67.273597717 51.195400238 -42.09999847 675.57037354 1.5595999956 0.0403000005 16.819200516 100000.00000 0.7347999811 119.89790344 173.77299500 3.9960000515 0.9855999947 0.4975000024 1607.5000000
 299.00000000 299.00000000 0.0000000000 0.0000000000 60.270698547 25.834899902 33.024700165 0.3302470148 35.629798889 1.8668999672 67.220497131 50.967800140 -42.09999847 673.44647217 1.5605000257 0.0428000018 16.591800690 100000.00000 0.7325000167 119.46269989 173.74760437 3.9946000576 0.9858000278 0.5026999712 1607.0000000
 299.50000000 299.50000000 0.0000000000 0.0000000000 61.091300964 26.639799118 33.821701050 0.3382170200 36.419101715 1.8669999838 67.236297607 49.617500305 -41.97999954 673.19177246 1.5602999926 0.0441999994 16.368900299 100000.00000 0.7294999957 119.04399872 173.72590637 3.9807999134 0.9865999818 0.5059000254 1606.5000000
 300.00000000 300.00000000 0.0000000000 0.0000000000 62.179599762 28.747999191 35.513698578 0.3551369905 37.929401398 1.8667000532 67.396598816 48.172698975 -41.86000061 671.71697998 1.5575000048 0.0434000008 16.082399368 100000.00000 0.7271999717 118.45780182 173.71279907 3.9742000103 0.9890000224 0.5054000020 1606.0000000
 300.50000000 300.50000000 0.0000000000 0.0000000000 63.556800842 30.294599533 36.506599426 0.3650659919 38.692699432 1.8666000366 67.635803223 46.178501129 -42.09999847 673.39251709 1.5534000397 0.0416000001 15.734000206 100000.00000 0.7258999944 117.68720245 173.71170044 3.9793000221 0.9911999702 0.5067999959 1605.5000000
 301.00000000 301.00000000 0.0000000000 0.0000000000 64.635902405 30.587499619 36.702301025 0.3670230210 38.834400177 1.8667999506 67.833000183 44.115501404 -42.09999847 676.31127930 1.5500999689 0.0408999994 15.471300125 100000.00000 0.7249000072 117.09809875 173.71859741 3.9772999287 0.9921000004 0.5124999881 1605.0000000
 301.50000000 301.50000000 0.0000000000 0.0000000000 65.083000183 31.012399673 37.009601593 0.3700960279 39.051998138 1.8669999838 67.978797913 43.057998657 -42.09999847 678.34161377 1.5476000309 0.0414999984 15.364999771 100000.00000 0.7243000269 116.89320374 173.72140503 3.9751000404 0.9923999906 0.5170999765 1604.5000000
 302.00000000 302.00000000 0.0000000000 0.0000000000 65.341201782 31.514299393 37.427700043 0.3742769957 39.339599609 1.8671000004 68.189399719 44.015899658 -42.34999847 679.91058350 1.5440000296 0.0414999984 15.304300308 100000.00000 0.7232000232 116.81500244 173.70849609 3.9769001007 0.9923999906 0.5169000030 1604.0000000
 302.50000000 302.50000000 0.0000000000 0.0000000000 65.848999023 31.387800217 37.317901611 0.3731790185 39.264999390 1.8672000170 68.540901184 46.091499329 -42.34999847 680.30187988 1.5379999876 0.0390999988 15.186300278 100000.00000 0.7214000225 116.61540222 173.67210388 3.9828999043 0.9923999906 0.5148000121 1603.5000000
 303.00000000 303.00000000 0.0000000000 0.0000000000 66.629699707 30.458999634 36.615299225 0.3661530018 38.771701813 1.8669999838 68.964797974 46.862300873 -42.47000122 679.68157959 1.5306999683 0.0348999985 15.008299828 100000.00000 0.7192000151 116.29389954 173.60400391 3.9927999973 0.9923999906 0.5157999992 1603.0000000
 303.50000000 303.50000000 0.0000000000 0.0000000000 67.576698303 29.382699966 35.925399780 0.3592540026 38.255699158 1.8665000200 69.312698364 46.736198425 -42.34999847 679.81408691 1.5247999430 0.0308999997 14.798000336 100000.00000 0.7159000039 115.91719818 173.48820496 3.9807999134 0.9927999973 0.5198000073 1602.5000000
 304.00000000 304.00000000 0.0000000000 0.0000000000 68.625701904 29.012500763 35.687198639 0.3568719923 38.068698883 1.8667000532 69.465698242 48.649398804 -42.34999847 680.06652832 1.5220999718 0.0289999992 14.571800232 100000.00000 0.7107999921 115.50890350 173.30279541 3.9737000465 0.9940999746 0.5239999890 1602.0000000
 304.50000000 304.50000000 0.0000000000 0.0000000000 69.753799438 29.516599655 36.010601044 0.3601060212 38.321399689 1.8674000502 69.396400452 51.579700470 -42.34999847 679.51208496 1.5233000517 0.0298999995 14.336099625 100000.00000 0.7064999938 115.05419922 173.03500366 3.9772999287 0.9958999753 0.5274000168 1601.5000000
 305.00000000 305.00000000 0.0000000000 0.0000000000 70.891998291 30.965700150 36.973800659 0.3697380126 39.026901245 1.8674000502 69.190498352 52.028598785 -42.22999954 678.39367676 1.5268000364 0.0322999991 14.105999947 100000.00000 0.7039999962 114.56819916 172.69630432 3.9830000401 0.9975000024 0.5306000113 1601.0000000
 305.50000000 305.50000000 0.0000000000 0.0000000000 71.960800171 32.572200775 38.264598846 0.3826459944 39.893001556 1.8669999838 69.029701233 52.043098450 -42.09999847 678.26611328 1.5296000242 0.0342999995 13.896499634 100000.00000 0.7027000189 114.09110260 172.32749939 3.9951000214 0.9983000159 0.5351999998 1600.5000000
 306.00000000 306.00000000 0.0000000000 0.0000000000 72.928199768 33.960899353 39.127498627 0.3912749887 40.444999695 1.8667999506 69.086799622 53.577800751 -42.09999847 679.33801270 1.5285999775 0.0344000012 13.712100029 100000.00000 0.7024000287 113.65509796 171.98570251 3.9888000488 0.9990000129 0.5400999784 1600.0000000
 306.50000000 306.50000000 0.0000000000 0.0000000000 73.764701843 34.190101624 39.266300201 0.3926630020 40.533100128 1.8672000170 69.374496460 53.758800507 -42.09999847 679.62902832 1.5236999989 0.0324000008 13.556599617 100000.00000 0.7009000182 113.29239655 171.72019958 3.9758999348 1.0006999969 0.5418999791 1599.5000000
 307.00000000 307.00000000 0.0000000000 0.0000000000 74.473602295 33.652500153 38.941101074 0.3894110024 40.326599121 1.8675999641 69.730400085 51.048400879 -42.22999954 678.66992188 1.5176000595 0.0299999993 13.427599907 100000.00000 0.6983000040 113.00309753 171.55079651 3.9781000614 1.0025000572 0.5418999791 1599.0000000
