# LAS format log file from PETREL
# Project units are specified as depth units
#==================================================================
~Version information
VERS.   2.0:
WRAP.   NO:
#==================================================================
~Well
STRT .FT      295.00000000 :
STOP .FT      3561.0000000 :
STEP .FT     0.50000000 :
NULL .        -999.250000 :
COMP.           : COMPANY
WELL.  GAUNT-WRIGHT UNIT NO. 1-32   : WELL
FLD.            : FIELD
LOC.            : LOCATION
SRVC.           : SERVICE COMPANY
DATE.  2020-07-30 04:07:39   : Log Export Date {yyyy-MM-dd HH:mm:ss}
PROV.           : PROVINCE
UWI.      : UNIQUE WELL ID
API.            : API NUMBER
#==================================================================
~Curve
DEPT .FT                   : DEPTH
DEPT .FT                   : DEPT
AVTX ._                   : AVTX
BVTX ._                   : BVTX
CILD .mS/m                : CILD
CNDL ._                   : CNDL
CNLS ._                   : CNLS
CNPOR ._                  : CNPOR
CNSS ._                   : CNSS
DCAL .in                  : DCAL
DPOR .m3/m3               : DPOR
GR .gAPI                  : GR
LSPD ._                   : LSPD
LTEN ._                   : LTEN
RHOB .g/cm3               : RHOB
RHOC .g/cm3               : RHOC
RILD ._                   : RILD
RILM ._                   : RILM
RLL3 ._                   : RLL3
RxoRt ._                  : RxoRt
SP .mV                    : SP
MCAL .in                  : MCAL
MI ._                     : MI
MN ._                     : MN
SSTVD .FT_                  : SSTVD
~Parameter
#==================================================================
~Ascii
# ...
 2245.0000000 2245.0000000 0.0000000000 0.0000000000 103.55740356 2.4291000366 7.8624000549 0.0786240026 11.889599800 1.9565000534 69.071197510 39.997100830 -68.20999908 1355.3061523 1.5289000273 0.0447000004 9.6564998627 10.729399681 13.543700218 -14.02869987 -48.82989883 4.0468997955 1.4029999971 2.6633000374 -339.0000000
 2245.5000000 2245.5000000 0.0000000000 0.0000000000 92.982002258 2.1329998970 7.3127999306 0.0731279999 11.335000038 1.9563000202 68.654197693 42.207199097 -68.20999908 1356.1787109 1.5360000134 0.0485000014 10.754799843 11.725999832 13.427499771 -10.76570034 -48.80080032 4.0399999619 1.4046000242 2.6707999706 -339.5000000
 2246.0000000 2246.0000000 0.0000000000 0.0000000000 83.753601074 1.9938999414 6.9816999435 0.0698169991 11.000499725 1.9559999704 68.386703491 44.338298798 -68.33000183 1359.8259277 1.5405999422 0.0513000004 11.939800262 12.789099693 12.790699959 -7.890900135 -48.86700058 4.0494999886 1.4076000452 2.6789000034 -340.0000000
 2246.5000000 2246.5000000 0.0000000000 0.0000000000 76.264801025 1.9520000219 6.8344998360 0.0683449954 10.851699829 1.9565999508 68.253196716 41.716300964 -68.33000183 1359.0911865 1.5428999662 0.0527999997 13.112199783 13.911600113 13.135800362 -6.596499920 -48.98339844 4.0493001938 1.4114999771 2.6916999817 -340.5000000
 2247.0000000 2247.0000000 0.0000000000 0.0000000000 70.580398560 1.9127000570 6.6466999054 0.0664670020 10.661999702 1.9577000141 68.226799011 35.364200592 -68.20999908 1358.3414307 1.5433000326 0.0533000007 14.168199539 15.068900108 15.504199982 -7.021599770 -49.11119843 4.0370001793 1.4141000509 2.7070000172 -341.0000000
 2247.5000000 2247.5000000 0.0000000000 0.0000000000 66.434501648 1.8507000208 6.2523999214 0.0625239983 10.263600349 1.9572999477 68.194999695 30.304899216 -68.20999908 1357.7128906 1.5439000130 0.0535999984 15.052399635 16.205299377 18.421100616 -8.115900040 -49.21599960 4.0383000374 1.4168000221 2.7267000675 -341.5000000
 2248.0000000 2248.0000000 0.0000000000 0.0000000000 63.241901398 1.7619999647 5.8636999130 0.0586370006 9.8710002899 1.9569000006 68.037498474 29.477399826 -68.08000183 1358.4488525 1.5465999842 0.0546999983 15.812299728 17.238700867 19.729700089 -8.553000450 -49.26969910 4.0331997871 1.4213000536 2.7553999424 -342.0000000
 2248.5000000 2248.5000000 0.0000000000 0.0000000000 60.382598877 1.7266000509 5.7558999062 0.0575589985 9.7622003555 1.9574999809 67.786003113 32.912498474 -68.08000183 1360.6696777 1.5508999825 0.0562000014 16.561100006 18.077400208 19.781900406 -7.581200123 -49.25579834 4.0399999619 1.4254000187 2.7869999409 -342.5000000
 2249.0000000 2249.0000000 0.0000000000 0.0000000000 57.485900879 1.7777999640 5.9169998169 0.0591699965 9.9247999191 1.9570000172 67.609298706 37.861400604 -68.20999908 1358.9235840 1.5539000034 0.0562999994 17.395599365 18.622400284 19.063299179 -5.271900177 -49.16930008 4.0443000793 1.4277000427 2.8090000153 -343.0000000
 2249.5000000 2249.5000000 0.0000000000 0.0000000000 54.589900970 1.8221999407 6.0980000496 0.0609799996 10.107600212 1.9563000202 67.613098145 39.971000671 -68.20999908 1355.4440918 1.5537999868 0.0546999983 18.318399429 18.747299194 18.181699753 -2.554800034 -49.01200104 4.0345997810 1.4293999672 2.8146998882 -343.5000000
 2250.0000000 2250.0000000 0.0000000000 0.0000000000 52.388801575 1.8322000504 6.1477999687 0.0614780001 10.157899857 1.9564000368 67.743896484 38.273601532 -68.20999908 1354.9852295 1.5515999794 0.0527999997 19.088100433 18.308099747 15.803299904 -1.072700024 -48.79069901 4.0357999802 1.4335000515 2.8194000721 -344.0000000
 2250.5000000 2250.5000000 0.0000000000 0.0000000000 52.016601563 1.8490999937 6.2431001663 0.0624310002 10.254099846 1.9565999508 67.898696899 36.211101532 -68.20999908 1356.1577148 1.5489000082 0.0515000001 19.224599838 17.249799728 18.040899277 -1.853800058 -48.52199936 4.0352997780 1.4393999577 2.8492999077 -344.5000000
 2251.0000000 2251.0000000 0.0000000000 0.0000000000 54.292400360 1.9035999775 6.5939998627 0.0659400001 10.608699799 1.9565000534 68.036903381 36.707401276 -68.20999908 1357.9431152 1.5465999842 0.0505999997 18.418800354 15.738699913 23.023099899 -3.823499918 -48.24570084 4.0366001129 1.4372999668 2.8715000153 -345.0000000
 2251.5000000 2251.5000000 0.0000000000 0.0000000000 58.908401489 2.0822000504 7.2056999207 0.0720570013 11.226799965 1.9565000534 68.197700500 40.117900848 -68.20999908 1358.7271729 1.5437999964 0.0491000004 16.975500107 14.121000290 21.982999802 -4.369999886 -48.03229904 4.0532999039 1.4210000038 2.8194000721 -345.5000000
 2252.0000000 2252.0000000 0.0000000000 0.0000000000 64.282798767 2.4914999008 7.9828000069 0.0798280016 12.010999680 1.9565999508 68.462097168 49.243198395 -68.20999908 1358.6389160 1.5392999649 0.0465000011 15.556300163 12.717800140 15.061100006 -1.456799984 -47.97399902 4.0426001549 1.3976000547 2.6953999996 -346.0000000
 2252.5000000 2252.5000000 0.0000000000 0.0000000000 68.512901306 2.7841000557 8.8613004684 0.0886130035 12.894700050 1.9565000534 68.844398499 73.834098816 -68.20999908 1356.8754883 1.5327999592 0.0432999991 14.595800400 11.682399750 9.1448001862 4.2182998657 -48.15039825 4.0338997841 1.3848999739 2.5985000134 -346.5000000
 2253.0000000 2253.0000000 0.0000000000 0.0000000000 71.053199768 2.8759999275 9.7468996048 0.0974689946 13.780799866 1.9563000202 69.219802856 116.28849792 -68.20999908 1354.4061279 1.5262999535 0.0405000001 14.074000359 11.001399994 7.3347001076 8.3692998886 -48.58200073 4.0395002365 1.3897999525 2.5947000980 -347.0000000
 2253.5000000 2253.5000000 0.0000000000 0.0000000000 73.627700806 3.4593999386 10.468400002 0.1046840027 14.497799873 1.9563000202 69.431900024 162.81320190 -68.20999908 1354.7961426 1.5226999521 0.0390000008 13.581800461 10.552300453 8.6293001175 6.6451001167 -49.20069885 4.0356998444 1.4084999561 2.6781001091 -347.5000000
 2254.0000000 2254.0000000 0.0000000000 0.0000000000 78.748596191 4.0357999802 10.942799568 0.1094279960 14.966199875 1.9564000368 69.460899353 191.99769592 -68.33000183 1356.8833008 1.5221999884 0.0379999988 12.698599815 10.164899826 12.195699692 0.0522000007 -49.86389923 4.0480999947 1.4292000532 2.7946000099 -348.0000000
 2254.5000000 2254.5000000 0.0000000000 0.0000000000 87.396301270 4.3438000679 11.242199898 0.1124219969 15.260499954 1.9569000006 69.418197632 185.91540527 -68.33000183 1357.2740479 1.5228999853 0.0366999991 11.442099571 9.6927003860 16.126300812 -6.887000084 -50.41590118 4.0514998436 1.4371999502 2.8599998951 -348.5000000
 2255.0000000 2255.0000000 0.0000000000 0.0000000000 97.688003540 4.6156997681 11.572999954 0.1157300025 15.584199905 1.9573999643 69.390998840 156.43319702 -68.33000183 1357.5422363 1.5233999491 0.0350000001 10.236700058 9.0768995285 15.414199829 -10.22780037 -50.76509857 4.0392999649 1.4305000305 2.8334000111 -349.0000000
 2255.5000000 2255.5000000 0.0000000000 0.0000000000 106.25189972 5.0177001953 12.194800377 0.1219480038 16.188800812 1.9571000338 69.355003357 137.42129517 -68.33000183 1357.7888184 1.5240000486 0.0340999998 9.4116001129 8.3450002670 10.879899979 -8.391900063 -50.93180084 4.0461997986 1.4151999950 2.7369999886 -349.5000000
 2256.0000000 2256.0000000 0.0000000000 0.0000000000 112.33650208 5.6222000122 13.187199593 0.1318719983 17.142599106 1.9571000338 69.250198364 139.10400391 -68.20999908 1357.4854736 1.5257999897 0.0353000015 8.9018001556 7.5482997894 7.3155999184 -3.373399973 -51.03730011 4.0377001762 1.4020999670 2.6426999569 -350.0000000
 2256.5000000 2256.5000000 0.0000000000 0.0000000000 119.09750366 6.4333000183 14.316800117 0.1431680024 18.215599060 1.9566999674 69.075401306 141.65339661 -68.20999908 1357.7314453 1.5288000107 0.0384999998 8.3964996338 6.7218999863 6.0131001472 -0.053300001 -51.24390030 4.0281000137 1.3998999596 2.6089999676 -350.5000000
 2257.0000000 2257.0000000 0.0000000000 0.0000000000 131.29769897 7.1132998466 15.368399620 0.1536839902 19.206699371 1.9565000534 68.934898376 124.54350281 -68.20999908 1355.3184814 1.5312000513 0.0428000018 7.6163001060 5.9008998871 6.3968000412 -2.170399904 -51.68000031 4.0447001457 1.4118000269 2.6570999622 -351.0000000
