# LAS format log file from PETREL
# Project units are specified as depth units
#==================================================================
~Version information
VERS.   2.0:
WRAP.   NO:
#==================================================================
~Well
STRT .FT      295.00000000 :
STOP .FT      3561.0000000 :
STEP .FT     0.50000000 :
NULL .        -999.250000 :
COMP.           : COMPANY
WELL.  GAUNT-WRIGHT UNIT NO. 1-32   : WELL
FLD.            : FIELD
LOC.            : LOCATION
SRVC.           : SERVICE COMPANY
DATE.  2020-07-30 04:07:39   : Log Export Date {yyyy-MM-dd HH:mm:ss}
PROV.           : PROVINCE
UWI.      : UNIQUE WELL ID
API.            : API NUMBER
#==================================================================
~Curve
DEPT .FT                   : DEPTH
DEPT .FT                   : DEPT
AVTX ._                   : AVTX
BVTX ._                   : BVTX
CILD .mS/m                : CILD
CNDL ._                   : CNDL
CNLS ._                   : CNLS
CNPOR ._                  : CNPOR
CNSS ._                   : CNSS
DCAL .in                  : DCAL
DPOR .m3/m3               : DPOR
GR .gAPI                  : GR
LSPD ._                   : LSPD
LTEN ._                   : LTEN
RHOB .g/cm3               : RHOB
RHOC .g/cm3               : RHOC
RILD ._                   : RILD
RILM ._                   : RILM
RLL3 ._                   : RLL3
RxoRt ._                  : RxoRt
SP .mV                    : SP
MCAL .in                  : MCAL
MI ._                     : MI
MN ._                     : MN
SSTVD .FT_                  : SSTVD
~Parameter
#==================================================================
~Ascii
# ...
 507.50000000 507.50000000 0.0000000000 0.0000000000 459.12588501 25.758100510 32.971099854 0.3297109902 35.575500488 1.8674999475 82.641601563 77.419197083 -71.04000092 746.34960938 1.2968000174 -0.037300002 2.1781001091 2.0790998936 2.2228999138 -2.283699989 -12.59609985 3.9786999226 0.9789000154 1.2062000036 1398.5000000
 508.00000000 508.00000000 0.0000000000 0.0000000000 436.32220459 26.493900299 33.651500702 0.3365150094 36.253700256 1.8671000004 83.326896667 77.654899597 -70.55000305 745.66461182 1.2850999832 -0.042599998 2.2918999195 2.1252999306 2.1870000362 0.1338000000 -12.67389965 3.9839999676 0.9786000252 1.2020000219 1398.0000000
 508.50000000 508.50000000 0.0000000000 0.0000000000 423.96328735 27.768699646 34.831298828 0.3483129740 37.353099823 1.8674999475 83.901901245 75.360801697 -70.55000305 745.75561523 1.2753000259 -0.046999998 2.3587000370 2.1240000725 2.1024999619 2.1558001041 -12.73700047 3.9874999523 0.9803000093 1.1972999573 1397.5000000
 509.00000000 509.00000000 0.0000000000 0.0000000000 421.96929932 29.217100143 35.819400787 0.3581939936 38.173099518 1.8680000305 84.311996460 74.413696289 -70.55000305 745.20709229 1.2683000565 -0.049600001 2.3698000908 2.0924000740 2.0114998817 3.3817999363 -12.75059986 3.9770998955 0.9805999994 1.1875000000 1397.0000000
 509.50000000 509.50000000 0.0000000000 0.0000000000 426.80630493 29.121299744 35.757701874 0.3575770259 38.124599457 1.8682999611 84.550102234 75.576599121 -70.79000092 744.51641846 1.2641999722 -0.050400000 2.3429999352 2.0553998947 1.9462000132 3.6921999454 -12.66549969 3.9828000069 0.9786000252 1.1740000248 1396.5000000
 510.00000000 510.00000000 0.0000000000 0.0000000000 433.45150757 26.893999100 34.096500397 0.3409650028 36.681701660 1.8686000109 84.656600952 76.206001282 -70.79000092 744.46319580 1.2624000311 -0.049899999 2.3071000576 2.0336000919 1.9247000217 3.2193999290 -12.43330002 3.9892001152 0.9785000086 1.1675000191 1396.0000000
 510.50000000 510.50000000 0.0000000000 0.0000000000 437.80029297 24.511100769 32.256301880 0.3225630224 34.841098785 1.8683999777 84.706199646 75.027198792 -70.91999817 745.97570801 1.2615000010 -0.049100000 2.2841000557 2.0394999981 1.9829000235 2.2767000198 -12.03230000 3.9765999317 0.9794999957 1.1693999767 1395.5000000
 511.00000000 511.00000000 0.0000000000 0.0000000000 437.91848755 24.917100906 32.481800079 0.3248180151 35.074501038 1.8674999475 84.755401611 74.031501770 -70.91999817 747.30279541 1.2606999874 -0.048500001 2.2834999561 2.0773000717 2.0766000748 1.2826000452 -11.48849964 3.9762001038 0.9782999754 1.1706999540 1395.0000000
 511.50000000 511.50000000 0.0000000000 0.0000000000 433.38619995 28.375000000 35.262599945 0.3526259959 37.722801208 1.8677999973 84.818603516 75.964897156 -70.91999817 745.57928467 1.2596000433 -0.047899999 2.3073999882 2.1449000835 2.1549000740 0.6460000277 -10.87819958 3.9749000072 0.9743999839 1.1663999557 1394.5000000
 512.00000000 512.00000000 0.0000000000 0.0000000000 424.29168701 32.207599640 38.005699158 0.3800569773 39.724498749 1.8680000305 84.910896301 82.985603333 -70.79000092 744.73388672 1.2580000162 -0.047600001 2.3568999767 2.2353000641 2.1960999966 0.6334000230 -10.30630016 3.9737999439 0.9720000029 1.1612999439 1394.0000000
 512.50000000 512.50000000 0.0000000000 0.0000000000 411.15701294 31.993799210 37.838100433 0.3783810139 39.614101410 1.8681000471 85.052398682 91.026496887 -70.79000092 744.91467285 1.2555999756 -0.048599999 2.4321999550 2.3378999233 2.2200999260 1.3098000288 -9.870499611 3.9877998829 0.9750999808 1.1610000134 1393.5000000
 513.00000000 513.00000000 0.0000000000 0.0000000000 395.23300171 30.022399902 36.331001282 0.3633100092 38.563301086 1.8679000139 85.219596863 94.852401733 -71.16000366 745.53802490 1.2526999712 -0.051199999 2.5302000046 2.4402000904 2.2413001060 2.5794000626 -9.629400253 3.9883000851 0.9804000258 1.1646000147 1393.0000000
 513.50000000 513.50000000 0.0000000000 0.0000000000 378.79458618 30.235599518 36.468101501 0.3646810055 38.664501190 1.8679000139 85.373001099 95.376098633 -71.16000366 745.40502930 1.2501000166 -0.054299999 2.6400001049 2.5302000046 2.2402000427 4.2012000084 -9.586799622 3.9781000614 0.9821000099 1.1658999920 1392.5000000
 514.00000000 514.00000000 0.0000000000 0.0000000000 364.66079712 32.355499268 38.114200592 0.3811420202 39.795299530 1.8681000471 85.539596558 92.924102783 -70.91999817 748.53778076 1.2473000288 -0.056899998 2.7423000336 2.5987000465 2.2158999443 5.8120999336 -9.697600365 3.9858000278 0.9810000062 1.1634000540 1392.0000000
 514.50000000 514.50000000 0.0000000000 0.0000000000 355.05279541 32.932098389 38.499198914 0.3849920034 40.044300079 1.8688000441 85.783599854 89.178497314 -70.91999817 750.74377441 1.2431000471 -0.059200000 2.8164999485 2.6412999630 2.1988999844 7.0503997803 -9.887999535 3.9797000885 0.9808999896 1.1614999771 1391.5000000
 515.00000000 515.00000000 0.0000000000 0.0000000000 350.75021362 30.744400024 36.811599731 0.3681159914 38.912399292 1.8683999777 86.069099426 84.200897217 -70.91999817 750.06402588 1.2381999493 -0.060800001 2.8510000706 2.6589000225 2.1919000149 7.7262997627 -10.08360004 3.9795000553 0.9825000167 1.1633000374 1391.0000000
 515.50000000 515.50000000 0.0000000000 0.0000000000 351.03048706 28.184700012 35.130798340 0.3513079882 37.611801147 1.8672000170 86.257003784 78.177902222 -70.91999817 748.73718262 1.2350000143 -0.060400002 2.8487999439 2.6565001011 2.1860001087 7.8868999481 -10.23359966 3.9853000641 0.9836999774 1.1655999422 1390.5000000
 516.00000000 516.00000000 0.0000000000 0.0000000000 354.20968628 27.984899521 34.989200592 0.3498920202 37.490699768 1.8672000170 86.273902893 76.621299744 -70.91999817 748.56231689 1.2346999645 -0.057999998 2.8231999874 2.6403999329 2.1763000488 7.7203001976 -10.32149982 3.9735000134 0.9811999798 1.1641000509 1390.0000000
 516.50000000 516.50000000 0.0000000000 0.0000000000 358.32348633 29.668699265 36.106800079 0.3610680103 38.394901276 1.8677999973 86.193603516 82.621696472 -70.79000092 747.49450684 1.2360999584 -0.055500001 2.7908000946 2.6161999702 2.1512000561 7.4123001099 -10.35799980 3.9774999619 0.9769999981 1.1605999470 1389.5000000
 517.00000000 517.00000000 0.0000000000 0.0000000000 362.36221313 31.114900589 37.090301514 0.3709030151 39.108200073 1.8679000139 86.128303528 89.764900208 -70.79000092 746.85906982 1.2372000217 -0.054600000 2.7597000599 2.5862998962 2.1447000504 7.0176000595 -10.36470032 3.9795999527 0.9764000177 1.1611000299 1389.0000000
 517.50000000 517.50000000 0.0000000000 0.0000000000 366.93728638 30.628099442 36.730201721 0.3673020303 38.854400635 1.8673000336 86.108596802 93.577796936 -70.79000092 747.89916992 1.2374999523 -0.055100001 2.7253000736 2.5506999493 2.1645998955 6.4671998024 -10.36110020 3.9725999832 0.9803000093 1.1676000357 1388.5000000
 518.00000000 518.00000000 0.0000000000 0.0000000000 373.26409912 28.284900665 35.200500488 0.3520050049 37.670799255 1.8680000305 86.094299316 91.670402527 -70.79000092 750.19378662 1.2378000021 -0.055700000 2.6791000366 2.5083000660 2.1791999340 5.7224998474 -10.36460018 3.9795999527 0.9850999713 1.1733000278 1388.0000000
 518.50000000 518.50000000 0.0000000000 0.0000000000 381.57159424 26.500699997 33.659400940 0.3365940154 36.261501312 1.8687000275 86.053001404 84.693199158 -70.79000092 752.85028076 1.2384999990 -0.055599999 2.6206998825 2.4595000744 2.1847000122 4.9021000862 -10.39519978 3.9867000580 0.9879999757 1.1763999462 1387.5000000
 519.00000000 519.00000000 0.0000000000 0.0000000000 390.29910278 25.438600540 32.772201538 0.3277220130 35.372898102 1.8686000109 85.960601807 80.892097473 -70.91999817 752.13568115 1.2401000261 -0.054499999 2.5620999336 2.4079000950 2.1821999550 4.2631001472 -10.47519970 3.9755001068 0.9891999960 1.1809999943 1387.0000000
 519.50000000 519.50000000 0.0000000000 0.0000000000 396.60910034 25.088600159 32.575500488 0.3257550001 35.171100616 1.8681000471 85.763496399 81.640998840 -70.91999817 750.08758545 1.2433999777 -0.051300000 2.5213999748 2.3594999313 2.1412999630 4.0187997818 -10.62119961 3.9760000706 0.9890000224 1.1858999729 1386.5000000
