# LAS format log file from PETREL
# Project units are specified as depth units
#==================================================================
~Version information
VERS.   2.0:
WRAP.   NO:
#==================================================================
~Well
STRT .FT      295.00000000 :
STOP .FT      3561.0000000 :
STEP .FT     0.50000000 :
NULL .        -999.250000 :
COMP.           : COMPANY
WELL.  GAUNT-WRIGHT UNIT NO. 1-32   : WELL
FLD.            : FIELD
LOC.            : LOCATION
SRVC.           : SERVICE COMPANY
DATE.  2020-07-30 04:07:39   : Log Export Date {yyyy-MM-dd HH:mm:ss}
PROV.           : PROVINCE
UWI.      : UNIQUE WELL ID
API.            : API NUMBER
#==================================================================
~Curve
DEPT .FT                   : DEPTH
DEPT .FT                   : DEPT
AVTX ._                   : AVTX
BVTX ._                   : BVTX
CILD .mS/m                : CILD
CNDL ._                   : CNDL
CNLS ._                   : CNLS
CNPOR ._                  : CNPOR
CNSS ._                   : CNSS
DCAL .in                  : DCAL
DPOR .m3/m3               : DPOR
GR .gAPI                  : GR
LSPD ._                   : LSPD
LTEN ._                   : LTEN
RHOB .g/cm3               : RHOB
RHOC .g/cm3               : RHOC
RILD ._                   : RILD
RILM ._                   : RILM
RLL3 ._                   : RLL3
RxoRt ._                  : RxoRt
SP .mV                    : SP
MCAL .in                  : MCAL
MI ._                     : MI
MN ._                     : MN
SSTVD .FT_                  : SSTVD
~Parameter
#==================================================================
~Ascii
# ...
 3332.5000000 3332.5000000 0.0000000000 0.0000000000 39.470500946 1.4119999409 5.0258002281 0.0502580032 9.0258998871 7.9182000160 2.4017999172 61.927799225 -37.43000031 1747.7376709 2.6689000130 0.0285000000 25.335399628 27.545299530 28.045299530 -6.076399803 -70.74240112 8.0880002975 45.090499878 59.923000336 -1426.500000
 3333.0000000 3333.0000000 0.0000000000 0.0000000000 37.348800659 1.4283000231 5.0604000092 0.0506040007 9.0607995987 7.9183001518 2.5989000797 59.722499847 -37.43000031 1752.9465332 2.6656000614 0.0263000000 26.774599075 27.255300522 28.050600052 -4.164100170 -69.69979858 8.0939998627 45.673698425 59.836399078 -1427.000000
 3333.5000000 3333.5000000 0.0000000000 0.0000000000 35.987400055 1.4651000500 5.1389999390 0.0513899997 9.1400003433 7.9187998772 2.9279000759 56.989200592 -37.06000137 1748.1691895 2.6598999500 0.0222999994 27.787500381 25.984800339 28.643999100 -2.098000050 -68.61779785 8.0940999985 48.893398285 62.629501343 -1427.500000
 3334.0000000 3334.0000000 0.0000000000 0.0000000000 36.398998260 1.5954999924 5.4257001877 0.0542570017 9.4289999008 7.9187002182 3.5325999260 54.180500031 -37.06000137 1744.7211914 2.6496000290 0.0176999997 27.473300934 23.825099945 28.309499741 -0.619400024 -67.51609802 8.0938997269 53.754699707 63.573600769 -1428.000000
 3334.5000000 3334.5000000 0.0000000000 0.0000000000 39.233798981 1.8093999624 6.0391998291 0.0603919998 10.048199654 7.9182000160 4.2946000099 53.006698608 -37.06000137 1744.9869385 2.6366000175 0.0159000009 25.488199234 21.109699249 25.549499512 0.1000000015 -66.39510345 8.0951004028 51.887901306 58.808498383 -1428.500000
 3335.0000000 3335.0000000 0.0000000000 0.0000000000 44.709098816 2.0106999874 7.0306000710 0.0703060031 11.049799919 7.9180998802 4.9952998161 53.043899536 -37.06000137 1733.4842529 2.6245999336 0.0185000002 22.366800308 18.295299530 19.954399109 0.2773999870 -65.24210358 8.1056995392 41.331600189 47.492500305 -1429.000000
 3335.5000000 3335.5000000 0.0000000000 0.0000000000 52.509700775 2.6419000626 8.3249998093 0.0832500011 12.355699539 7.9187002182 5.6381001472 52.621101379 -36.93000031 1731.0833740 2.6136000156 0.0236000009 19.044099808 15.768400192 16.799200058 0.2148000002 -64.04830170 8.1240997314 32.241901398 36.421398163 -1429.500000
 3336.0000000 3336.0000000 0.0000000000 0.0000000000 61.716300964 2.8777999878 9.7524003983 0.0975240022 13.786299706 7.9187998772 6.4015998840 51.413200378 -37.29999924 1731.0953369 2.6005001068 0.0275999997 16.203199387 13.739800453 14.507100105 0.2101999968 -62.82910156 8.1243000031 27.982599258 28.250999451 -1430.000000
 3336.5000000 3336.5000000 0.0000000000 0.0000000000 70.971000671 4.1405000687 11.037300110 0.1103729978 15.059200287 7.9189000130 7.2821002007 51.904800415 -37.29999924 1731.3908691 2.5855000019 0.0297999997 14.090299606 12.253399849 12.402099609 0.4284999967 -61.63460159 8.1210002899 25.635099411 22.891799927 -1430.500000
 3337.0000000 3337.0000000 0.0000000000 0.0000000000 78.523696899 4.7121000290 11.708700180 0.1170869991 15.716699600 7.9189000130 7.9102997780 57.217800140 -37.29999924 1735.6915283 2.5747001171 0.0322999991 12.734999657 11.235899925 10.901200294 0.3427999914 -60.54719925 8.1110000610 23.159799576 19.706899643 -1431.000000
 3337.5000000 3337.5000000 0.0000000000 0.0000000000 83.323196411 4.5071001053 11.431900024 0.1143189967 15.446299553 7.9187998772 7.8186001778 63.281101227 -37.18000031 1743.7963867 2.5762999058 0.0375000015 12.001500130 10.526700020 9.0788002014 -2.234600067 -59.65919876 8.1098003387 20.411699295 17.845300674 -1431.500000
 3338.0000000 3338.0000000 0.0000000000 0.0000000000 86.980300903 3.6851999760 10.653200150 0.1065320000 14.680500031 7.9189000130 6.9689998627 62.051700592 -37.29999924 1744.5562744 2.5908000469 0.0434000008 11.496899605 9.8941001892 9.3392000198 -9.606100082 -59.03659821 8.1122999191 25.017900467 22.905899048 -1432.000000
 3338.5000000 3338.5000000 0.0000000000 0.0000000000 93.109802246 3.1033000946 10.131899834 0.1013190001 14.163999557 7.9184999466 6.1343002319 53.536899567 -37.06000137 1742.5194092 2.6050999165 0.0441000015 10.739999771 9.1070003510 16.227399826 -20.55590057 -58.68690109 8.1001996994 43.088100433 39.898300171 -1432.500000
 3339.0000000 3339.0000000 0.0000000000 0.0000000000 104.59600067 3.2799999714 10.311100006 0.1031109989 14.341899872 7.9187002182 6.8252000809 44.175399780 -37.06000137 1736.0904541 2.5933001041 0.0359999985 9.5606002808 8.0938997269 25.324199677 -31.26510048 -58.55229950 8.0927000046 60.822399139 56.949798584 -1433.000000
 3339.5000000 3339.5000000 0.0000000000 0.0000000000 121.48960114 4.4067001343 11.312299728 0.1131229997 15.329299927 7.9194998741 10.241900444 39.083400726 -37.06000137 1734.6757813 2.5348999500 0.0275999997 8.2312002182 7.0138998032 27.614599228 -38.03739929 -58.53680038 8.0924997330 62.519500732 61.131900787 -1433.500000
 3340.0000000 3340.0000000 0.0000000000 1.0000000000 139.57690430 5.5464000702 13.072099686 0.1307210028 17.032600403 7.9215002060 15.334899902 40.388900757 -37.18000031 1744.4898682 2.4477999210 0.0406000018 7.1645002365 6.1008000374 21.441799164 -38.05789948 -58.55110168 8.1108999252 44.916801453 46.858699799 -1434.000000
 3340.5000000 3340.5000000 0.0000000000 0.0000000000 151.81469727 7.0731000900 15.296999931 0.1529700011 19.139499664 7.9538002014 19.238700867 50.295101166 -37.18000031 1748.8420410 2.3810000420 0.0878000036 6.5869998932 5.4945998192 10.458900452 -30.61350060 -58.55239868 8.2709999084 20.478799820 22.068799973 -1434.500000
 3341.0000000 3341.0000000 0.0000000000 0.0000000000 154.26119995 8.0137996674 16.639900208 0.1663990021 20.400400162 8.1829996109 20.306200027 66.746597290 -37.29999924 1737.3414307 2.3627998829 0.1504999995 6.4825000763 5.2335000038 4.8460998535 -20.36300087 -58.55799866 8.7204999924 7.7480998039 8.0190000534 -1435.000000
 3341.5000000 3341.5000000 0.0000000000 0.0000000000 150.02749634 6.9349999428 15.057900429 0.1505790055 18.914600372 8.5705995560 18.769599915 79.892097473 -37.18000031 1727.7052002 2.3889999390 0.1958000064 6.6654000282 5.3176999092 4.2003002167 -18.30669975 -58.63100052 9.0642004013 9.8999004364 8.3247003555 -1435.500000
 3342.0000000 3342.0000000 0.0000000000 0.0000000000 145.65010071 4.7017002106 11.693599701 0.1169359982 15.701999664 8.6749000549 15.498600006 79.754096985 -37.18000031 1727.6894531 2.4449999332 0.2026000023 6.8657999039 5.7525000572 7.9541997910 -27.73959923 -58.84740067 8.7672004700 27.464799881 24.607500076 -1436.000000
 3342.5000000 3342.5000000 0.0000000000 0.0000000000 144.44200134 2.7507998943 8.6838998795 0.0868389979 12.716600418 8.4219999313 11.434000015 65.278503418 -37.06000137 1727.6730957 2.5144999027 0.1703000069 6.9232001305 6.5591998100 20.434499741 -39.82350159 -59.26039886 8.2532997131 53.694198608 56.943500519 -1436.500000
 3343.0000000 3343.0000000 0.0000000000 0.0000000000 143.41250610 1.9177999496 6.6750001907 0.0667500049 10.690600395 8.0708999634 7.6743998528 46.757198334 -37.18000031 1733.7723389 2.5787999630 0.1164000034 6.9728999138 7.7574000359 29.832500458 -47.94839859 -59.87390137 8.0968999863 64.065200806 73.805999756 -1437.000000
 3343.5000000 3343.5000000 0.0000000000 0.0000000000 136.17799377 1.7005000114 5.6838002205 0.0568380021 9.6893997192 7.9600000381 5.2831997871 36.223201752 -37.06000137 1746.3868408 2.6196999550 0.0658000037 7.3432998657 9.3039999008 25.455200195 -50.12179947 -60.63190079 8.0847997665 53.826999664 60.571899414 -1437.500000
 3344.0000000 3344.0000000 0.0000000000 0.0000000000 120.08350372 1.5609999895 5.3477001190 0.0534770004 9.3502998352 7.9526000023 4.4833998680 33.364398956 -37.29999924 1743.3767090 2.6333000660 0.0348000005 8.3275003433 10.942999840 23.109300613 -47.23799896 -61.42570114 8.0718002319 42.756801605 47.948200226 -1438.000000
 3344.5000000 3344.5000000 0.0000000000 0.0000000000 100.13739777 1.5945999622 5.4236998558 0.0542369969 9.4268999100 7.9532999992 4.6329998970 32.090198517 -37.29999924 1741.7150879 2.6308000088 0.0221999995 9.9863004684 12.023400307 27.179700851 -41.50579834 -62.11869812 8.0513000488 41.016399384 47.494800568 -1438.500000
